[{"business_status": "OPERATIONAL", "geometry": {"location": {"lat": 32.8619874, "lng": -79.9069923}, "viewport": {"northeast": {"lat": 32.8634074302915, "lng": -79.9056078697085}, "southwest": {"lat": 32.8607094697085, "lng": -79.90830583029151}}}, "icon": "https://maps.gstatic.com/mapfiles/place_api/icons/v1/png_71/restaurant-71.png", "name": "Laura Alberts", "opening_hours": {"open_now": true}, "photos": [{"height": 3024, "html_attributions": ["<a href=\"https://maps.google.com/maps/contrib/100675736607077324545\">Alex M</a>"], "photo_reference": "Aap_uEDNEX5xd7wxWhJzg5smtCTXXS6zhxos_fzCIop7berogydLQ_e0PESQ9Zfr6W1Yhpp5NebHYicgNbvfd4uEGz2A6eGjzyNcQpnkHdYK06vOP8d6EsB2AUx17Xtel2KEaZcXJ80nFjGCrRmjG25Na7RNxA8DeobXmokewm5qxy13csOq", "width": 4032}], "place_id": "ChIJA5Ni8-9v_ogRSqpHrXInM_M", "plus_code": {"compound_code": "V36V+Q6 Charleston, SC, USA", "global_code": "8742V36V+Q6"}, "price_level": 2, "rating": 4.6, "reference": "ChIJA5Ni8-9v_ogRSqpHrXInM_M", "scope": "GOOGLE", "types": ["liquor_store", "restaurant", "food", "point_of_interest", "store", "establishment"], "user_ratings_total": 265, "vicinity": "891 Island Park Drive, Charleston"}, {"business_status": "OPERATIONAL", "geometry": {"location": {"lat": 32.8627399, "lng": -79.9036272}, "viewport": {"northeast": {"lat": 32.8641622302915, "lng": -79.9023661197085}, "southwest": {"lat": 32.8614642697085, "lng": -79.90506408029151}}}, "icon": "https://maps.gstatic.com/mapfiles/place_api/icons/v1/png_71/restaurant-71.png", "name": "Subway", "opening_hours": {"open_now": true}, "photos": [{"height": 1080, "html_attributions": ["<a href=\"https://maps.google.com/maps/contrib/114274584121928784930\">Yibran DAuquier</a>"], "photo_reference": "Aap_uEDggskVBey-Uru7c_-0lLPJDjMxq8prGYBdmAZmHSbNFzGpF5ALurv55KHGPkNNeUiaR-_JF3hISbaaUDkfGSHDfEiaasTWGS_Zpyyh13wk0xeYwa__EvAppie5bnZqPNWyUh657x2NywghyBSl_KHz7rLbcUEE3QAsgCCmTIftUkJX", "width": 1920}], "place_id": "ChIJN44sI-9v_ogRjWvP4mBGYcI", "plus_code": {"compound_code": "V37W+3G Charleston, SC, USA", "global_code": "8742V37W+3G"}, "price_level": 1, "rating": 3.7, "reference": "ChIJN44sI-9v_ogRjWvP4mBGYcI", "scope": "GOOGLE", "types": ["meal_takeaway", "restaurant", "food", "point_of_interest", "establishment"], "user_ratings_total": 79, "vicinity": "162 Seven Farms Drive Suite # 315, Charleston"}, {"business_status": "OPERATIONAL", "geometry": {"location": {"lat": 32.8589995, "lng": -79.9099916}, "viewport": {"northeast": {"lat": 32.8604795802915, "lng": -79.90865061970848}, "southwest": {"lat": 32.8577816197085, "lng": -79.91134858029149}}}, "icon": "https://maps.gstatic.com/mapfiles/place_api/icons/v1/png_71/bar-71.png", "name": "Daniel Island Grille", "opening_hours": {"open_now": true}, "photos": [{"height": 3024, "html_attributions": ["<a href=\"https://maps.google.com/maps/contrib/108034171202905068979\">Al Lupinya</a>"], "photo_reference": "Aap_uEASBuywkzVGhN2YkcKidqjmDGV3y8syj1zJvwpjJ9u3vFTh5Y90BWFWvM2zCi7dgzQfXay4FZxFB2Osq3CqDa50xQIvVycjADCuU9z-qDJ3RzhVeRRhknVEnO3SGtZSZa6UCWQGusTInyd-QGowjUY4DS4IsPdYbbnypzqZaxq3I7-1", "width": 4032}], "place_id": "ChIJK8fw4fpv_ogRMmNeMLAK4dU", "plus_code": {"compound_code": "V35R+H2 Charleston, SC, USA", "global_code": "8742V35R+H2"}, "price_level": 2, "rating": 4, "reference": "ChIJK8fw4fpv_ogRMmNeMLAK4dU", "scope": "GOOGLE", "types": ["bar", "restaurant", "food", "point_of_interest", "establishment"], "user_ratings_total": 723, "vicinity": "259 Seven Farms Drive, Charleston"}, {"business_status": "OPERATIONAL", "geometry": {"location": {"lat": 32.8614384, "lng": -79.9082524}, "viewport": {"northeast": {"lat": 32.86291733029149, "lng": -79.90695396970848}, "southwest": {"lat": 32.8602193697085, "lng": -79.90965193029149}}}, "icon": "https://maps.gstatic.com/mapfiles/place_api/icons/v1/png_71/restaurant-71.png", "name": "Ristorante LIDI", "opening_hours": {"open_now": false}, "photos": [{"height": 2800, "html_attributions": ["<a href=\"https://maps.google.com/maps/contrib/115690270464300805987\">Ristorante LIDI</a>"], "photo_reference": "Aap_uEDvoM_CotARO0_FL130DWnTGyYVo2J4OkEddQuSWbisim1NIRUbPz3CUgFdNvSlFjQtE3PxHu2_jg5J4oB1jq2_ygrg1THVyuwQY9a-XPwM_TrK3yTb-aDWSmBCqbzJfmrogFGGiTe3LTobD0t-SqapTlo_IbGDTQSBn3QY3oPgj5bU", "width": 3960}], "place_id": "ChIJz_jMVeVv_ogR5dVUOkNnOSc", "plus_code": {"compound_code": "V36R+HM Daniel Island, Charleston, SC, USA", "global_code": "8742V36R+HM"}, "price_level": 2, "rating": 4.1, "reference": "ChIJz_jMVeVv_ogR5dVUOkNnOSc", "scope": "GOOGLE", "types": ["restaurant", "food", "point_of_interest", "establishment"], "user_ratings_total": 227, "vicinity": "901 Island Park Drive, Daniel Island"}, {"business_status": "OPERATIONAL", "geometry": {"location": {"lat": 32.8626263, "lng": -79.9038887}, "viewport": {"northeast": {"lat": 32.86422608029149, "lng": -79.90206001970849}, "southwest": {"lat": 32.8615281197085, "lng": -79.9047579802915}}}, "icon": "https://maps.gstatic.com/mapfiles/place_api/icons/v1/png_71/generic_business-71.png", "name": "Domino's Pizza", "opening_hours": {"open_now": true}, "photos": [{"height": 6598, "html_attributions": ["<a href=\"https://maps.google.com/maps/contrib/110322321874862982743\">Domino&#39;s Pizza</a>"], "photo_reference": "Aap_uEAJUE4-Xb4DcZOHV1HM7i1vaTHxDKG7tHMtl8xye_J6_MSfsW7RhbaC0s_QJVnc2Elg_i4PcM0Yf95kttJFaAlglKrjqSintbAZHqdidFSqIMV1f58BSk5llnB8aYBEtRPeI6DdrF46wl0yGKBsngBXpyhGmyMNS0FVeSD8b8wZvHDo", "width": 8051}], "place_id": "ChIJXzKtOu9v_ogRIOHVSoikRNg", "plus_code": {"compound_code": "V37W+3C Daniel Island, Charleston, SC, USA", "global_code": "8742V37W+3C"}, "price_level": 1, "rating": 3.5, "reference": "ChIJXzKtOu9v_ogRIOHVSoikRNg", "scope": "GOOGLE", "types": ["meal_delivery", "meal_takeaway", "restaurant", "food", "point_of_interest", "establishment"], "user_ratings_total": 168, "vicinity": "162 Seven Farms Drive, Daniel Island"}, {"business_status": "OPERATIONAL", "geometry": {"location": {"lat": 32.8642608, "lng": -79.9047083}, "viewport": {"northeast": {"lat": 32.8657072302915, "lng": -79.9034036197085}, "southwest": {"lat": 32.8630092697085, "lng": -79.9061015802915}}}, "icon": "https://maps.gstatic.com/mapfiles/place_api/icons/v1/png_71/shopping-71.png", "name": "Refuel", "opening_hours": {"open_now": true}, "photos": [{"height": 4032, "html_attributions": ["<a href=\"https://maps.google.com/maps/contrib/110921082055488670828\">C-STORE INC</a>"], "photo_reference": "Aap_uECgjX4vZjildcfXV3edPfTb9jicGqBLLCXfQR4hu6tGG_UKvnkjwnJBnUo0VmjrOJsNBpARR1LXoasRKSKnorkRZfjGY-R8DZBPVtmKBhKKnRW85OZhIc7S299W9C1G9wJWZfxn-_oe_pZK8_5nx1_tweRR49hxgaAWWpbk5nYxNJcg", "width": 3024}], "place_id": "ChIJLwfq_O5v_ogRj48Gmc4u-vU", "plus_code": {"compound_code": "V37W+P4 Charleston, SC, USA", "global_code": "8742V37W+P4"}, "rating": 4.3, "reference": "ChIJLwfq_O5v_ogRj48Gmc4u-vU", "scope": "GOOGLE", "types": ["convenience_store", "gas_station", "restaurant", "food", "point_of_interest", "store", "establishment"], "user_ratings_total": 133, "vicinity": "860 Island Park Drive, Charleston"}, {"business_status": "OPERATIONAL", "geometry": {"location": {"lat": 32.86275639999999, "lng": -79.9036186}, "viewport": {"northeast": {"lat": 32.86417643029149, "lng": -79.9023547697085}, "southwest": {"lat": 32.86147846970849, "lng": -79.9050527302915}}}, "icon": "https://maps.gstatic.com/mapfiles/place_api/icons/v1/png_71/restaurant-71.png", "name": "Dragon Palace Chinese Bistro", "opening_hours": {"open_now": true}, "photos": [{"height": 2664, "html_attributions": ["<a href=\"https://maps.google.com/maps/contrib/111186435746571471580\">\uc74c\uc815\uc2dd</a>"], "photo_reference": "Aap_uED9kkKU6_bm9ZFqoYVqkU72A3VbPU4XtTKZSHyY0LRKX2XpXNB_srGeXVkcC4G_DVUrSeAFQsuCvWYlUG-Nxu4KyJVVm384k3e4bnawbjyZ3gCFYYNws5yVnyeV0YAlNpMjOHIZBO65HPE5wA5oVXHj4mEIUdyPv-fPFnuOXqwL7vCp", "width": 3996}], "place_id": "ChIJN44sI-9v_ogR3ShHqjCx5EU", "plus_code": {"compound_code": "V37W+4H Daniel Island, Charleston, SC, USA", "global_code": "8742V37W+4H"}, "price_level": 2, "rating": 4.4, "reference": "ChIJN44sI-9v_ogR3ShHqjCx5EU", "scope": "GOOGLE", "types": ["meal_takeaway", "restaurant", "food", "point_of_interest", "establishment"], "user_ratings_total": 220, "vicinity": "162 Seven Farms Drive, Daniel Island"}, {"business_status": "OPERATIONAL", "geometry": {"location": {"lat": 32.8565521, "lng": -79.9045562}, "viewport": {"northeast": {"lat": 32.8579010802915, "lng": -79.90320721970849}, "southwest": {"lat": 32.8552031197085, "lng": -79.90590518029151}}}, "icon": "https://maps.gstatic.com/mapfiles/place_api/icons/v1/png_71/restaurant-71.png", "name": "Sermet's Courtyard", "opening_hours": {"open_now": false}, "photos": [{"height": 3024, "html_attributions": ["<a href=\"https://maps.google.com/maps/contrib/114861356262405311623\">Cai Palmiter</a>"], "photo_reference": "Aap_uECnkKAw6RMoWYS_f5smL2J2gteKzrA5PEUKDrO-RLictiaODrCJUavXvr0uK4OppMtBhHTrcsqhftcam0_DCRTpXnVwGwwoEEwW9yOBELPJWfXqTfLxvw9ZjX-PRlYpD9Y7p7fYSiHT0ivIf23hRTq_frKd-SEQzbP85kL0IQjkmUQR", "width": 4032}], "place_id": "ChIJZQ3xb-Rv_ogRQyCAU0Xyiw8", "plus_code": {"compound_code": "V34W+J5 Charleston, SC, USA", "global_code": "8742V34W+J5"}, "price_level": 2, "rating": 4.7, "reference": "ChIJZQ3xb-Rv_ogRQyCAU0Xyiw8", "scope": "GOOGLE", "types": ["restaurant", "food", "point_of_interest", "establishment"], "user_ratings_total": 214, "vicinity": "115 River Landing Drive #101, Charleston"}, {"business_status": "OPERATIONAL", "geometry": {"location": {"lat": 32.860816, "lng": -79.90671999999999}, "viewport": {"northeast": {"lat": 32.8622586802915, "lng": -79.9054317197085}, "southwest": {"lat": 32.8595607197085, "lng": -79.90812968029151}}}, "icon": "https://maps.gstatic.com/mapfiles/place_api/icons/v1/png_71/restaurant-71.png", "name": "Vespa Pizzeria", "opening_hours": {"open_now": true}, "photos": [{"height": 1960, "html_attributions": ["<a href=\"https://maps.google.com/maps/contrib/109119702756545122093\">Holly wood</a>"], "photo_reference": "Aap_uEDGp3s5KS2vkzGFrVnurg7ZZYNMXrG4S4PCZQISAgHZNj0k1AozBAnDRJMCMd2HKd4sDjgoBnCvQ9fHVJwfFNkCavFUwJ3Z1fL9WurrB3MBJsEMn-KX6tqHCes56JmfjN4YDiNz37E2IsHwRIhVrL71hnmTIOMYz5Re8EurDtS8eLE0", "width": 4032}], "place_id": "ChIJv-O0XeVv_ogRWjMrMZffcQg", "plus_code": {"compound_code": "V36V+88 Daniel Island, Charleston, SC, USA", "global_code": "8742V36V+88"}, "price_level": 2, "rating": 4.3, "reference": "ChIJv-O0XeVv_ogRWjMrMZffcQg", "scope": "GOOGLE", "types": ["bar", "restaurant", "food", "point_of_interest", "establishment"], "user_ratings_total": 342, "vicinity": "224 Seven Farms Drive #101, Daniel Island"}, {"business_status": "OPERATIONAL", "geometry": {"location": {"lat": 32.858479, "lng": -79.911575}, "viewport": {"northeast": {"lat": 32.8600063302915, "lng": -79.9100293197085}, "southwest": {"lat": 32.8573083697085, "lng": -79.9127272802915}}}, "icon": "https://maps.gstatic.com/mapfiles/place_api/icons/v1/png_71/restaurant-71.png", "name": "Orlando's Brick Oven Pizza", "opening_hours": {"open_now": true}, "photos": [{"height": 3024, "html_attributions": ["<a href=\"https://maps.google.com/maps/contrib/113389471227218106122\">Orlando&#39;s Brick Oven Pizza</a>"], "photo_reference": "Aap_uEA1XinWNK4pZLnqYIUjhgNuWYoTwanyI-qcr30uNS5H8TAUlWkHyI7BisC19KTgLxs4H7WMRFpSygxgYMK-Sp0WU9bSr-vHh8fjCrOA1RWEfes7nnIzvwRPmVx5sMguq5Lvo_mdP3PuWXJtfMAFKxlpM-v1c9QQfM9L_E7S8cu9nCMH", "width": 4032}], "place_id": "ChIJ357Spvtv_ogR9_QeyMvy3Lk", "plus_code": {"compound_code": "V35Q+99 Charleston, SC, USA", "global_code": "8742V35Q+99"}, "price_level": 1, "rating": 4.7, "reference": "ChIJ357Spvtv_ogR9_QeyMvy3Lk", "scope": "GOOGLE", "types": ["restaurant", "food", "point_of_interest", "establishment"], "user_ratings_total": 506, "vicinity": "295 Seven Farms Drive, Charleston"}, {"business_status": "OPERATIONAL", "geometry": {"location": {"lat": 32.86207339999999, "lng": -79.90464349999999}, "viewport": {"northeast": {"lat": 32.86348653029149, "lng": -79.9033598697085}, "southwest": {"lat": 32.86078856970849, "lng": -79.9060578302915}}}, "icon": "https://maps.gstatic.com/mapfiles/place_api/icons/v1/png_71/restaurant-71.png", "name": "Wasabi of Daniel Island", "opening_hours": {"open_now": false}, "photos": [{"height": 750, "html_attributions": ["<a href=\"https://maps.google.com/maps/contrib/102298921858494683325\">Wasabi of Daniel Island</a>"], "photo_reference": "Aap_uEBtb0J_JMOBrN87d-lBz_poiEg8iWvwe7rxz8g8Y_irJE7c-2TsoJNifRjdmCKTNwZic-dOKpCA4lk8sIzK3aCGdvgdXawCyMtQMl9Qx4ILd6y9ViSA5eT4_RnDgseYnR4ippnx90x2QgM3Y3foU2roR6xwouIfhBhRFK32xWnCz88i", "width": 1125}], "place_id": "ChIJQw1cZe9v_ogRcvBdGFJHNv0", "plus_code": {"compound_code": "V36W+R4 Charleston, SC, USA", "global_code": "8742V36W+R4"}, "price_level": 2, "rating": 4.3, "reference": "ChIJQw1cZe9v_ogRcvBdGFJHNv0", "scope": "GOOGLE", "types": ["restaurant", "food", "point_of_interest", "establishment"], "user_ratings_total": 448, "vicinity": "194 Seven Farms Drive, Charleston"}, {"business_status": "OPERATIONAL", "geometry": {"location": {"lat": 32.8623763, "lng": -79.9041836}, "viewport": {"northeast": {"lat": 32.8637900302915, "lng": -79.9029182197085}, "southwest": {"lat": 32.8610920697085, "lng": -79.9056161802915}}}, "icon": "https://maps.gstatic.com/mapfiles/place_api/icons/v1/png_71/restaurant-71.png", "name": "Ali Baba Deli & Catering", "opening_hours": {"open_now": true}, "photos": [{"height": 4032, "html_attributions": ["<a href=\"https://maps.google.com/maps/contrib/102286234242549089221\">wanda kelley</a>"], "photo_reference": "Aap_uEB5iqkHPhRqsJoXQtFbazbw44VCkABdCqiz3wtVTCF4DJAFam1FvOX8elbnS8B2PAX4ktsYliZzCi1P-HApawbUNB8mOIxh9czXoPhn6Saiu-iVjzJniXd2r9k0mIP_HNIe-fSAsSvCOrN6IqKD4qe_AgA0upHr5UdM5Zy_MonRlZcR", "width": 3024}], "place_id": "ChIJzbtemuNv_ogRA0hjXzMuy2w", "plus_code": {"compound_code": "V36W+X8 Charleston, SC, USA", "global_code": "8742V36W+X8"}, "price_level": 2, "rating": 4.4, "reference": "ChIJzbtemuNv_ogRA0hjXzMuy2w", "scope": "GOOGLE", "types": ["restaurant", "food", "point_of_interest", "establishment"], "user_ratings_total": 422, "vicinity": "186 Seven Farms Drive #500, Charleston"}, {"business_status": "OPERATIONAL", "geometry": {"location": {"lat": 32.86227209999999, "lng": -79.9064135}, "viewport": {"northeast": {"lat": 32.8635400302915, "lng": -79.9050232197085}, "southwest": {"lat": 32.8608420697085, "lng": -79.90772118029152}}}, "icon": "https://maps.gstatic.com/mapfiles/place_api/icons/v1/png_71/restaurant-71.png", "name": "Agaves Cantina", "opening_hours": {"open_now": true}, "photos": [{"height": 3024, "html_attributions": ["<a href=\"https://maps.google.com/maps/contrib/105485375468302545553\">Samuel Trotter</a>"], "photo_reference": "Aap_uEBs13RY4o3F5_lVbcO330XLx-VsnbNmNDu8AE4pwxvLyEtxdIWXbVY4OCHQvGWe-NMQ2wgDX0Fl5Rngjq_8P-c9aX4UcFD5CAkCb7AY4Xn-wc1c3Ao9hTbyT7AC-zy_v2L-AiYhIZYxu4HRiU9OL8ZQ7-_KEqAN3-JkGWAL-7x6fchE", "width": 4032}], "place_id": "ChIJ1VLlku9v_ogRb6gomm1SkGU", "plus_code": {"compound_code": "V36V+WC Charleston, SC, USA", "global_code": "8742V36V+WC"}, "price_level": 2, "rating": 4.3, "reference": "ChIJ1VLlku9v_ogRb6gomm1SkGU", "scope": "GOOGLE", "types": ["restaurant", "food", "point_of_interest", "establishment"], "user_ratings_total": 666, "vicinity": "885 Island Park Drive, Charleston"}, {"business_status": "OPERATIONAL", "geometry": {"location": {"lat": 32.8627744, "lng": -79.9068075}, "viewport": {"northeast": {"lat": 32.86398288029149, "lng": -79.9053412197085}, "southwest": {"lat": 32.8612849197085, "lng": -79.90803918029151}}}, "icon": "https://maps.gstatic.com/mapfiles/place_api/icons/v1/png_71/generic_business-71.png", "name": "New Realm Brewing - Charleston", "opening_hours": {"open_now": true}, "photos": [{"height": 1125, "html_attributions": ["<a href=\"https://maps.google.com/maps/contrib/100522803335862924641\">New Realm Brewing - Charleston</a>"], "photo_reference": "Aap_uED3u_lRiZggABXcMBuVs_qiFlXZngWAAQuvPy9JnaLAI_xEZfk0Fv7zt37EVevZcyMWZFvL4AaA2DeQ7ZVNRLFVc5z7uPYRD0H3g2kBGgFfcxLGypH0lJJsvEckjjbtDHEwljwkFOdvb0yBPK_YMA-nKqyz1JA1orz-9v4dE9iRE2zo", "width": 1500}], "place_id": "ChIJG0Nz-jNv_ogRABdnmGiH3T0", "plus_code": {"compound_code": "V37V+47 Daniel Island, Charleston, SC, USA", "global_code": "8742V37V+47"}, "rating": 4.1, "reference": "ChIJG0Nz-jNv_ogRABdnmGiH3T0", "scope": "GOOGLE", "types": ["bar", "restaurant", "food", "point_of_interest", "establishment"], "user_ratings_total": 8, "vicinity": "880 Island Park Drive, Daniel Island"}, {"business_status": "OPERATIONAL", "geometry": {"location": {"lat": 32.8627849, "lng": -79.90673989999999}, "viewport": {"northeast": {"lat": 32.8644141302915, "lng": -79.90582661970849}, "southwest": {"lat": 32.8617161697085, "lng": -79.9085245802915}}}, "icon": "https://maps.gstatic.com/mapfiles/place_api/icons/v1/png_71/restaurant-71.png", "name": "New Realm - Daniel Island", "opening_hours": {"open_now": true}, "photos": [{"height": 1872, "html_attributions": ["<a href=\"https://maps.google.com/maps/contrib/111794422677119382501\">Charleston 3D Advantage</a>"], "photo_reference": "Aap_uEBrt2SXFWmq-hK0BOUYEbs3_MoMSGdhgozAtDklk-f7yKJnXhXPNPQn-DhQ5qsFRj6qre3SWm-bXyrTgKENHizvViQNu1ZllrhYfYcC-5Sx1PMFrg_gD2rojxp0bctot63WkeWVLjKrWLvmjY4rNym1GlYIAV2u3rId3YKMD0l1w-_6", "width": 3398}], "place_id": "ChIJVyXzle9v_ogRdU2caGZHID8", "plus_code": {"compound_code": "V37V+48 Charleston, SC, USA", "global_code": "8742V37V+48"}, "price_level": 2, "rating": 4, "reference": "ChIJVyXzle9v_ogRdU2caGZHID8", "scope": "GOOGLE", "types": ["restaurant", "bar", "food", "point_of_interest", "establishment"], "user_ratings_total": 327, "vicinity": "880 Island Park Drive, Charleston"}, {"business_status": "OPERATIONAL", "geometry": {"location": {"lat": 32.86224500000001, "lng": -79.9043437}, "viewport": {"northeast": {"lat": 32.86368153029151, "lng": -79.90303286970848}, "southwest": {"lat": 32.86098356970851, "lng": -79.9057308302915}}}, "icon": "https://maps.gstatic.com/mapfiles/place_api/icons/v1/png_71/restaurant-71.png", "name": "Tropical Smoothie Cafe", "opening_hours": {"open_now": true}, "photos": [{"height": 608, "html_attributions": ["<a href=\"https://maps.google.com/maps/contrib/106206231490765961101\">Tropical Smoothie Cafe</a>"], "photo_reference": "Aap_uEDXzuceyCa2Hb9D8t4RXYRWB7-uR32RwQFmiwED9DmILibH-RcyXYr35m1SJs4REOFlGT2XNZcavy3guMV59hUvSMPe2cYog-M_9IvWEBrx3vsapNJYwwbiqOa3LuFpXnf-bAHkATB4nJFRfvV1MuqITHFGrWCnu_ishSjf8Rz34DuS", "width": 1080}], "place_id": "ChIJeYr-xd5v_ogRE_ScdOJfC4g", "plus_code": {"compound_code": "V36W+V7 Charleston, SC, USA", "global_code": "8742V36W+V7"}, "price_level": 1, "rating": 4.3, "reference": "ChIJeYr-xd5v_ogRE_ScdOJfC4g", "scope": "GOOGLE", "types": ["restaurant", "food", "point_of_interest", "establishment"], "user_ratings_total": 200, "vicinity": "186 Seven Farms Drive, Charleston"}, {"business_status": "OPERATIONAL", "geometry": {"location": {"lat": 32.8624357, "lng": -79.9039239}, "viewport": {"northeast": {"lat": 32.86375553029149, "lng": -79.90261406970849}, "southwest": {"lat": 32.8610575697085, "lng": -79.90531203029151}}}, "icon": "https://maps.gstatic.com/mapfiles/place_api/icons/v1/png_71/restaurant-71.png", "name": "Mpishi Restaurant", "opening_hours": {"open_now": false}, "photos": [{"height": 2016, "html_attributions": ["<a href=\"https://maps.google.com/maps/contrib/114310848159349533978\">Mpishi Restaurant</a>"], "photo_reference": "Aap_uED1BMmlZfGKqIjMjDlW1NsynHV5_17tPmDzlFs4cgrjQ5B1La9V0Uc70VkhCMfkNl62L62ZP2yPlnw3F3xpeO6MU_uzpFRARfqe3t77iSoA8nfG8FQFWnrKuL4XjDha5MXpN7VQ0PHgkpsUiENfn21gsv8DlX1DchR9UFDmHOsGcK7-", "width": 1512}], "place_id": "ChIJqW6wm-Fv_ogREwVR2Ghx5mo", "plus_code": {"compound_code": "V36W+XC Daniel Island, Charleston, SC, USA", "global_code": "8742V36W+XC"}, "rating": 4.3, "reference": "ChIJqW6wm-Fv_ogREwVR2Ghx5mo", "scope": "GOOGLE", "types": ["restaurant", "bakery", "food", "point_of_interest", "store", "establishment"], "user_ratings_total": 75, "vicinity": "162 Seven Farms Drive #340, Daniel Island"}, {"business_status": "OPERATIONAL", "geometry": {"location": {"lat": 32.8636867, "lng": -79.90516079999999}, "viewport": {"northeast": {"lat": 32.8649739802915, "lng": -79.9037445197085}, "southwest": {"lat": 32.8622760197085, "lng": -79.90644248029152}}}, "icon": "https://maps.gstatic.com/mapfiles/place_api/icons/v1/png_71/restaurant-71.png", "name": "Viva Tacos & Tequila", "opening_hours": {"open_now": true}, "photos": [{"height": 4000, "html_attributions": ["<a href=\"https://maps.google.com/maps/contrib/101848389632262836590\">Sue Ann Marie</a>"], "photo_reference": "Aap_uEBHoZlcVIVjxBQhmFHD-7h-3w6U9HcAT3amuNZ7GHG6MYZNG1rFuvCWIPDTXSIXrK0HmyNB4GBfYbE5yRwEMTU2YN7vpPBRSRx2b3p0AKcmX5gdJN8_Jut_EG2wkXfzTHyFA2lxrlAR8yQLRZUxAbnd2nWw2wG8I0OMkWVCNFj3SLt3", "width": 3000}], "place_id": "ChIJUZ_0GlRv_ogR-5kBOvHZgOE", "plus_code": {"compound_code": "V37V+FW Charleston, SC, USA", "global_code": "8742V37V+FW"}, "rating": 4.2, "reference": "ChIJUZ_0GlRv_ogR-5kBOvHZgOE", "scope": "GOOGLE", "types": ["restaurant", "food", "point_of_interest", "establishment"], "user_ratings_total": 143, "vicinity": "864 Island Park Drive Suite #105, Charleston"}, {"business_status": "OPERATIONAL", "geometry": {"location": {"lat": 32.863758, "lng": -79.9050979}, "viewport": {"northeast": {"lat": 32.8650390802915, "lng": -79.9036748197085}, "southwest": {"lat": 32.8623411197085, "lng": -79.9063727802915}}}, "icon": "https://maps.gstatic.com/mapfiles/place_api/icons/v1/png_71/restaurant-71.png", "name": "Beech", "opening_hours": {"open_now": true}, "photos": [{"height": 3024, "html_attributions": ["<a href=\"https://maps.google.com/maps/contrib/113069823492625779817\">Beech</a>"], "photo_reference": "Aap_uEBOyFcb61hFWaZ6KX7pcpTelaYMPcGxJlnM-z65vDds2YOxsId91q_TW-uwzNwZm5trVsEbug5NnxtPvDammynkuiB_qmb6MZDAv-0RTzrF2fVamG3A1qL4moDp2tpQ6SZHFDBHda58i5pc5qRKtc79ntkEdgH_QKbwIFtyTUhuAJx5", "width": 4032}], "place_id": "ChIJpwlg9ptv_ogRh-HXGewL2hg", "plus_code": {"compound_code": "V37V+GX Charleston, SC, USA", "global_code": "8742V37V+GX"}, "rating": 4.5, "reference": "ChIJpwlg9ptv_ogRh-HXGewL2hg", "scope": "GOOGLE", "types": ["restaurant", "food", "point_of_interest", "establishment"], "user_ratings_total": 70, "vicinity": "864 Island Park Drive Suite 102, Charleston"}, {"business_status": "OPERATIONAL", "geometry": {"location": {"lat": 32.8647818, "lng": -79.9055795}, "viewport": {"northeast": {"lat": 32.8662003802915, "lng": -79.90438756970849}, "southwest": {"lat": 32.8635024197085, "lng": -79.90708553029151}}}, "icon": "https://maps.gstatic.com/mapfiles/place_api/icons/v1/png_71/cafe-71.png", "name": "Starbucks", "opening_hours": {"open_now": true}, "photos": [{"height": 4032, "html_attributions": ["<a href=\"https://maps.google.com/maps/contrib/113896007931124458779\">Or Bar-Ziv</a>"], "photo_reference": "Aap_uEDrIPJ8mgMXOzwOv3VAqTxPK69rUlAz91rV_WYmWX73huldEGf3CplOXYvIjxAskb0dDt1ESTYg5IQibFXue4pOGJ8c4RskAEGIbuveFcvGpjFI50B1glANvKupGERJYflPld6knPS75TbhnIgP8M6yuw8cywMoytSkv5nzKzqJm6th", "width": 3024}], "place_id": "ChIJpXxhOvFv_ogRHGzzfTjVGJQ", "plus_code": {"compound_code": "V37V+WQ Charleston, SC, USA", "global_code": "8742V37V+WQ"}, "price_level": 2, "rating": 4.2, "reference": "ChIJpXxhOvFv_ogRHGzzfTjVGJQ", "scope": "GOOGLE", "types": ["cafe", "restaurant", "food", "point_of_interest", "store", "establishment"], "user_ratings_total": 239, "vicinity": "20 Fairchild Street Suite 101, Charleston"}, {"business_status": "OPERATIONAL", "geometry": {"location": {"lat": 32.8555444, "lng": -79.9032225}, "viewport": {"northeast": {"lat": 32.8569563302915, "lng": -79.90184971970851}, "southwest": {"lat": 32.8542583697085, "lng": -79.90454768029151}}}, "icon": "https://maps.gstatic.com/mapfiles/place_api/icons/v1/png_71/restaurant-71.png", "name": "The Kingstide", "opening_hours": {"open_now": false}, "photos": [{"height": 4400, "html_attributions": ["<a href=\"https://maps.google.com/maps/contrib/107044597341335119601\">The Kingstide</a>"], "photo_reference": "Aap_uEBYhEcPUysFSn7HCoZGfONeQrMOVe7SRMl3m_v3dtg1oGMc8yBb2X839nrsLEiGS0oZ5btYyChTfFaL4lWt_niOOkj7sOlJuXUfh6islJuVG7cflH54OQsmlvg5niiDanPkK9d9GTMTYWL5mwaboNmSqGrdFak8ngyKWReaZIpc-8dx", "width": 6600}], "place_id": "ChIJUxbQoGBv_ogRkEFJ64sz8Ic", "plus_code": {"compound_code": "V34W+6P Daniel Island, Charleston, SC, USA", "global_code": "8742V34W+6P"}, "rating": 4.6, "reference": "ChIJUxbQoGBv_ogRkEFJ64sz8Ic", "scope": "GOOGLE", "types": ["restaurant", "food", "point_of_interest", "establishment"], "user_ratings_total": 95, "vicinity": "32 River Landing Drive, Daniel Island"}, {"business_status": "OPERATIONAL", "geometry": {"location": {"lat": 32.942763, "lng": -80.04107499999999}, "viewport": {"northeast": {"lat": 32.94398938029151, "lng": -80.03968586970849}, "southwest": {"lat": 32.94129141970851, "lng": -80.0423838302915}}}, "icon": "https://maps.gstatic.com/mapfiles/place_api/icons/v1/png_71/restaurant-71.png", "name": "Olive Garden Italian Restaurant", "opening_hours": {"open_now": true}, "photos": [{"height": 2136, "html_attributions": ["<a href=\"https://maps.google.com/maps/contrib/117002537574436815494\">Michael Young</a>"], "photo_reference": "Aap_uEDFVFJ01pU46zRpx29jvfwjb6UcU7OD0qKGeUKyUk1T0EUgp1rDi6A2vrSckigu_6LSLwdQNsSiHX4ExNBaGbCv0aN6wqD4EkD4BuluUC9ETGPF3LKooQ0JSWs5cmoXZ_ZZUVQ4Ib7k_57N36n1E23mQVe4QqZIdlFYLG3-9kBdHujv", "width": 2268}], "place_id": "ChIJFxA_Z9pj_ogRgZOaRDa8PqE", "plus_code": {"compound_code": "WXV5+4H North Charleston, SC, USA", "global_code": "864XWXV5+4H"}, "price_level": 2, "rating": 4, "reference": "ChIJFxA_Z9pj_ogRgZOaRDa8PqE", "scope": "GOOGLE", "types": ["meal_takeaway", "bar", "restaurant", "food", "point_of_interest", "establishment"], "user_ratings_total": 3668, "vicinity": "2156 Northwoods Boulevard, North Charleston"}, {"business_status": "OPERATIONAL", "geometry": {"location": {"lat": 32.9334719, "lng": -80.04847149999999}, "viewport": {"northeast": {"lat": 32.9348494802915, "lng": -80.04697981970848}, "southwest": {"lat": 32.9321515197085, "lng": -80.0496777802915}}}, "icon": "https://maps.gstatic.com/mapfiles/place_api/icons/v1/png_71/restaurant-71.png", "name": "Cracker Barrel Old Country Store", "opening_hours": {"open_now": true}, "photos": [{"height": 608, "html_attributions": ["<a href=\"https://maps.google.com/maps/contrib/114562934605036115738\">Cracker Barrel Old Country Store</a>"], "photo_reference": "Aap_uEB4So4_1K1xOPvLRp_VJ77IfpuSl7IUxbHOvg6nUSoBta6HguvVpW9wxmsIx9YXnrYWYvvhqy0i3wAJi0sAdNCGKesjgAeLg6xKMN-25xK1_NC3k4tCqNThtU2y6rOeeVVKHxA7pBFVxoAA7qqgkfbx1jo_HUsxwViRLU7bB7P_jYdY", "width": 1080}], "place_id": "ChIJM4KohMtj_ogRzJahahlfPLA", "plus_code": {"compound_code": "WXM2+9J North Charleston, SC, USA", "global_code": "864XWXM2+9J"}, "price_level": 2, "rating": 4.2, "reference": "ChIJM4KohMtj_ogRzJahahlfPLA", "scope": "GOOGLE", "types": ["restaurant", "food", "point_of_interest", "store", "establishment"], "user_ratings_total": 3114, "vicinity": "7351 Mazyck Road, North Charleston"}, {"business_status": "OPERATIONAL", "geometry": {"location": {"lat": 32.9348256, "lng": -80.0444497}, "viewport": {"northeast": {"lat": 32.9362717802915, "lng": -80.0430704697085}, "southwest": {"lat": 32.9335738197085, "lng": -80.0457684302915}}}, "icon": "https://maps.gstatic.com/mapfiles/place_api/icons/v1/png_71/lodging-71.png", "name": "Rodeway Inn", "opening_hours": {"open_now": true}, "photos": [{"height": 1068, "html_attributions": ["<a href=\"https://maps.google.com/maps/contrib/109006534219222017966\">Rodeway Inn</a>"], "photo_reference": "Aap_uECUfxdIoJ6-9yhDyYNxdtqul4VZogXsZZZXODorlQm7e_VV118yg6WRB-MXTsrFatd4VjImB5iwSPwPHxiReg6Z-WWjtgltlh17pv0TdjrlHPYZMoYagj5-gdoMKVsbKTScJHluSU3lS1qMaVjsKKyHwkGHu4Qqdf5WYgtCipt_NE50", "width": 1900}], "place_id": "ChIJBcKjIs9j_ogRfxQvHVuzpiw", "plus_code": {"compound_code": "WXM4+W6 North Charleston, SC, USA", "global_code": "864XWXM4+W6"}, "rating": 3, "reference": "ChIJBcKjIs9j_ogRfxQvHVuzpiw", "scope": "GOOGLE", "types": ["lodging", "restaurant", "food", "point_of_interest", "establishment"], "user_ratings_total": 533, "vicinity": "2311 Ashley Phosphate Road, North Charleston"}, {"business_status": "OPERATIONAL", "geometry": {"location": {"lat": 32.9333893, "lng": -80.03651}, "viewport": {"northeast": {"lat": 32.93474518029149, "lng": -80.0351842197085}, "southwest": {"lat": 32.93204721970849, "lng": -80.0378821802915}}}, "icon": "https://maps.gstatic.com/mapfiles/place_api/icons/v1/png_71/restaurant-71.png", "name": "Wingstop", "opening_hours": {"open_now": true}, "photos": [{"height": 2988, "html_attributions": ["<a href=\"https://maps.google.com/maps/contrib/111330942096608773673\">patricia pagel</a>"], "photo_reference": "Aap_uEBQRfPXF_6G6ULteouip9BI5CAT0h08q69vmuB-RPCVGKHoNjxEqu8R3CVA-Irqw5G3aa7ccHmk5-DN6QlarBItOH-wTpXgakAz9Y4d5abTVn-TZlTmRTqDVr85Hu8xOl94lTiU-B0jaiI_jsY--WxV6gsP25sic8-cSqO_eHrwbmja", "width": 5312}], "place_id": "ChIJpT_xbsRj_ogRWfh4dhOLZ_A", "plus_code": {"compound_code": "WXM7+99 North Charleston, SC, USA", "global_code": "864XWXM7+99"}, "price_level": 2, "rating": 3.3, "reference": "ChIJpT_xbsRj_ogRWfh4dhOLZ_A", "scope": "GOOGLE", "types": ["restaurant", "food", "point_of_interest", "establishment"], "user_ratings_total": 381, "vicinity": "7250 Rivers Avenue Unit 200-3, North Charleston"}, {"business_status": "OPERATIONAL", "geometry": {"location": {"lat": 32.945792, "lng": -80.039604}, "viewport": {"northeast": {"lat": 32.9470880802915, "lng": -80.03832336970848}, "southwest": {"lat": 32.9443901197085, "lng": -80.0410213302915}}}, "icon": "https://maps.gstatic.com/mapfiles/place_api/icons/v1/png_71/restaurant-71.png", "name": "Moe's Southwest Grill", "opening_hours": {"open_now": true}, "photos": [{"height": 3006, "html_attributions": ["<a href=\"https://maps.google.com/maps/contrib/102368042216817747097\">Michael Miller</a>"], "photo_reference": "Aap_uEDBgknnasjoe3Jd-jC1tbkAUa4KCKWlOIf2tekEfy5Wv6ZGLs4C6yK9iBiX3Eq2gyrrkz0Wypi5H3rdHOdUErAbjLAFSt3nqdW2prl8bSnnma408aHK1zjVPik_PUe-ZHVWU8gaTIWYg43OrMgV5ziogzClirGCRy20aKX-sKpNRit0", "width": 5344}], "place_id": "ChIJi785Ythj_ogR6YMRL3m9as8", "plus_code": {"compound_code": "WXW6+85 North Charleston, SC, USA", "global_code": "864XWXW6+85"}, "price_level": 1, "rating": 4.2, "reference": "ChIJi785Ythj_ogR6YMRL3m9as8", "scope": "GOOGLE", "types": ["restaurant", "food", "point_of_interest", "establishment"], "user_ratings_total": 835, "vicinity": "7800 Rivers Avenue, North Charleston"}, {"business_status": "OPERATIONAL", "geometry": {"location": {"lat": 32.9409995, "lng": -80.04122319999999}, "viewport": {"northeast": {"lat": 32.9424443802915, "lng": -80.03987936970847}, "southwest": {"lat": 32.9397464197085, "lng": -80.0425773302915}}}, "icon": "https://maps.gstatic.com/mapfiles/place_api/icons/v1/png_71/restaurant-71.png", "name": "Outback Steakhouse", "opening_hours": {"open_now": true}, "photos": [{"height": 1008, "html_attributions": ["<a href=\"https://maps.google.com/maps/contrib/117002537574436815494\">Michael Young</a>"], "photo_reference": "Aap_uEDm9i_zVfX3O29CCZ48TMz3Lu6MkRD6XvLPfd4cS96KPndYZHBC0f0_zI7dm8-T7jC6cF1rpoxSGxBL9R59dJAZHYykoAuFsHnf-55HuqYx1XxIBDm8FE4gB_0vnuql8k-GXLRg4BHECycLSu3kN5cnO150s8GRVYmZLE3E70hDYHKm", "width": 2268}], "place_id": "ChIJF6sdk9pj_ogRQWlteBRWNTQ", "plus_code": {"compound_code": "WXR5+9G North Charleston, SC, USA", "global_code": "864XWXR5+9G"}, "price_level": 2, "rating": 4, "reference": "ChIJF6sdk9pj_ogRQWlteBRWNTQ", "scope": "GOOGLE", "types": ["meal_takeaway", "bar", "restaurant", "food", "point_of_interest", "establishment"], "user_ratings_total": 2805, "vicinity": "7643 Rivers Avenue, North Charleston"}, {"business_status": "OPERATIONAL", "geometry": {"location": {"lat": 32.93628560000001, "lng": -80.0457863}, "viewport": {"northeast": {"lat": 32.9376675802915, "lng": -80.04436481970849}, "southwest": {"lat": 32.9349696197085, "lng": -80.0470627802915}}}, "icon": "https://maps.gstatic.com/mapfiles/place_api/icons/v1/png_71/restaurant-71.png", "name": "Waffle House", "opening_hours": {"open_now": true}, "photos": [{"height": 717, "html_attributions": ["<a href=\"https://maps.google.com/maps/contrib/107260537670816555008\">John Griesbach</a>"], "photo_reference": "Aap_uEBgSi_UPskYywYW_bGx2rNMDdMua2ZvcMuWjlATeGDiG4LZbMqUohBFqnIkMj-yXsfSEOuRXW3j7xdYUL1WBQGUr3j9ohz3vhhdb9RwLVysk6QWmkf9YJCgdN9ldOmJLC0vSB0W21C1jPPX9HmQXpN9QhCk7b4OGPneegpp-QLSrPKV", "width": 1105}], "place_id": "ChIJU2C7-85j_ogRAFW04XBntZw", "plus_code": {"compound_code": "WXP3+GM North Charleston, SC, USA", "global_code": "864XWXP3+GM"}, "price_level": 1, "rating": 3.9, "reference": "ChIJU2C7-85j_ogRAFW04XBntZw", "scope": "GOOGLE", "types": ["meal_takeaway", "restaurant", "food", "point_of_interest", "establishment"], "user_ratings_total": 845, "vicinity": "7391 Northwoods Boulevard, North Charleston"}, {"business_status": "OPERATIONAL", "geometry": {"location": {"lat": 32.944485, "lng": -80.0413647}, "viewport": {"northeast": {"lat": 32.9459462802915, "lng": -80.04001501970849}, "southwest": {"lat": 32.9432483197085, "lng": -80.0427129802915}}}, "icon": "https://maps.gstatic.com/mapfiles/place_api/icons/v1/png_71/restaurant-71.png", "name": "Carrabba's Italian Grill", "opening_hours": {"open_now": true}, "photos": [{"height": 3024, "html_attributions": ["<a href=\"https://maps.google.com/maps/contrib/105102906770329798372\">Eric Sposato</a>"], "photo_reference": "Aap_uEAaa3afJ880qFjb_MJK_MgZDpHNblnzNcHkgKJ3Huhbry3Deh78g1L9PPYZk-UH-H1CwFuP_Ii22aowb_CZvP7L90jfIxZkCb45aGLdMrPKtriGz-L67mWgyf0ZpP8_GWXY9e_ctl5c5YXnWTZFORz4DWsrk_29Pltm2TjNG8e0lCi8", "width": 4032}], "place_id": "ChIJqZ8wxtBj_ogRYKa2SJXvA9U", "plus_code": {"compound_code": "WXV5+QF North Charleston, SC, USA", "global_code": "864XWXV5+QF"}, "price_level": 2, "rating": 3.9, "reference": "ChIJqZ8wxtBj_ogRYKa2SJXvA9U", "scope": "GOOGLE", "types": ["meal_takeaway", "bar", "restaurant", "food", "point_of_interest", "establishment"], "user_ratings_total": 1623, "vicinity": "2150 Northwoods Boulevard Bldg 100, North Charleston"}, {"business_status": "OPERATIONAL", "geometry": {"location": {"lat": 32.9329463, "lng": -80.0365235}, "viewport": {"northeast": {"lat": 32.9342179802915, "lng": -80.03503306970849}, "southwest": {"lat": 32.9315200197085, "lng": -80.03773103029151}}}, "icon": "https://maps.gstatic.com/mapfiles/place_api/icons/v1/png_71/restaurant-71.png", "name": "Smokey Bones", "opening_hours": {"open_now": true}, "photos": [{"height": 1849, "html_attributions": ["<a href=\"https://maps.google.com/maps/contrib/107101199253766658967\">Chris Duvall</a>"], "photo_reference": "Aap_uEDf55akoReKbxRyW1kwS7tBUdD1iGeEcysaLZMn4nEQ5CZiZdk8tL17VSKwlAwq3cVA7QYzNtZxV3AZpfDFU_UpP7wBwN6OY-uHmUrPBNBAJIXm8egcv5KNIVVHeqXQ9EHQlfP0xZe7LZKuVhUJrUhc38xU55tv1ofnBQcU6HWTOD2y", "width": 3803}], "place_id": "ChIJX9bcwMNj_ogRebon44HAxSc", "plus_code": {"compound_code": "WXM7+59 North Charleston, SC, USA", "global_code": "864XWXM7+59"}, "price_level": 2, "rating": 3.9, "reference": "ChIJX9bcwMNj_ogRebon44HAxSc", "scope": "GOOGLE", "types": ["bar", "restaurant", "food", "point_of_interest", "establishment"], "user_ratings_total": 2350, "vicinity": "7250 Rivers Avenue, North Charleston"}, {"business_status": "OPERATIONAL", "geometry": {"location": {"lat": 32.93410310000001, "lng": -80.0371747}, "viewport": {"northeast": {"lat": 32.9354304302915, "lng": -80.03593411970849}, "southwest": {"lat": 32.9327324697085, "lng": -80.03863208029149}}}, "icon": "https://maps.gstatic.com/mapfiles/place_api/icons/v1/png_71/restaurant-71.png", "name": "LongHorn Steakhouse", "opening_hours": {"open_now": true}, "photos": [{"height": 1050, "html_attributions": ["<a href=\"https://maps.google.com/maps/contrib/117002537574436815494\">Michael Young</a>"], "photo_reference": "Aap_uED_8DZXGlKz_sZ6T3vDuPsp3tT1HVpx8AjHmYbenTZVxjzMqg8KfLNzM5DsNQh8rxhTX8L1XklwgkR66zWw2IPnN2sOjVpqr8TV32gvMU-fZyW__VQUgM8-uXHijka_p63N_jspfi4qFGRo_gtumLypYzImX-sxiLBC6ra0gO-NwIK8", "width": 2033}], "place_id": "ChIJw_hfQMJj_ogRLJeOAqJE8Kc", "plus_code": {"compound_code": "WXM7+J4 North Charleston, SC, USA", "global_code": "864XWXM7+J4"}, "price_level": 2, "rating": 4.3, "reference": "ChIJw_hfQMJj_ogRLJeOAqJE8Kc", "scope": "GOOGLE", "types": ["meal_takeaway", "bar", "restaurant", "food", "point_of_interest", "establishment"], "user_ratings_total": 2154, "vicinity": "7250 Rivers Avenue, North Charleston"}, {"business_status": "OPERATIONAL", "geometry": {"location": {"lat": 32.94009939999999, "lng": -80.03669049999999}, "viewport": {"northeast": {"lat": 32.9413912302915, "lng": -80.03545131970849}, "southwest": {"lat": 32.9386932697085, "lng": -80.0381492802915}}}, "icon": "https://maps.gstatic.com/mapfiles/place_api/icons/v1/png_71/generic_business-71.png", "name": "Pizza Hut", "opening_hours": {"open_now": true}, "photos": [{"height": 683, "html_attributions": ["<a href=\"https://maps.google.com/maps/contrib/105262415112999382893\">Pizza Hut</a>"], "photo_reference": "Aap_uEDSezSLO1ITJWt2L04GF58tdBcmg8KckTX0YzH5BW6H6PbN-wVpHItPwrkLZNRRxK_CKiYDDxn0AGTFCWjfflV6ZBETTETkmSTeNnqXtI-O35x0e5Ya6GlZCOJEs_wutFhf3PqFXri26Nzsoa0-IeCJZBvH_WLK54lg-gInTZw3kHRt", "width": 1025}], "place_id": "ChIJI9M009pj_ogRKy0ABCInv48", "plus_code": {"compound_code": "WXR7+28 North Charleston, SC, USA", "global_code": "864XWXR7+28"}, "price_level": 1, "rating": 3.1, "reference": "ChIJI9M009pj_ogRKy0ABCInv48", "scope": "GOOGLE", "types": ["meal_delivery", "meal_takeaway", "restaurant", "food", "point_of_interest", "establishment"], "user_ratings_total": 225, "vicinity": "7400 Rivers Avenue L, North Charleston"}, {"business_status": "OPERATIONAL", "geometry": {"location": {"lat": 32.94143799999999, "lng": -80.039819}, "viewport": {"northeast": {"lat": 32.9427788802915, "lng": -80.03854846970849}, "southwest": {"lat": 32.9400809197085, "lng": -80.04124643029151}}}, "icon": "https://maps.gstatic.com/mapfiles/place_api/icons/v1/png_71/restaurant-71.png", "name": "Wild Wing Cafe", "opening_hours": {"open_now": true}, "photos": [{"height": 2308, "html_attributions": ["<a href=\"https://maps.google.com/maps/contrib/117002537574436815494\">Michael Young</a>"], "photo_reference": "Aap_uEAn5WsY56R4A7PFgMB_g098N-8s1JbFH4pvLzJ1FHAji88G3g8MgCW9zQBPrmc3ASg1oTBaxLqJ8AwmOpO0CKAkiv7DPeuL3vHI_UynFcgML8hFqwJgO8cKOac-1z_R0Db0XbrvDie3zZiUNitqVXXzYY6L5Ys0GM7RPxuV-NQeeSCH", "width": 2268}], "place_id": "ChIJE_PT-9pj_ogRIMJ2zz5s4Vo", "plus_code": {"compound_code": "WXR6+H3 North Charleston, SC, USA", "global_code": "864XWXR6+H3"}, "price_level": 2, "rating": 3.9, "reference": "ChIJE_PT-9pj_ogRIMJ2zz5s4Vo", "scope": "GOOGLE", "types": ["bar", "restaurant", "food", "point_of_interest", "establishment"], "user_ratings_total": 2569, "vicinity": "7618 Rivers Avenue, North Charleston"}, {"business_status": "OPERATIONAL", "geometry": {"location": {"lat": 32.93488600000001, "lng": -80.049446}, "viewport": {"northeast": {"lat": 32.9362568302915, "lng": -80.04819301970849}, "southwest": {"lat": 32.93355886970851, "lng": -80.05089098029151}}}, "icon": "https://maps.gstatic.com/mapfiles/place_api/icons/v1/png_71/restaurant-71.png", "name": "Ruby Tuesday", "opening_hours": {"open_now": true}, "photos": [{"height": 3024, "html_attributions": ["<a href=\"https://maps.google.com/maps/contrib/108715078108737755494\">Evan Guthrie</a>"], "photo_reference": "Aap_uEAXKkAVSk-yxqAmt9Qr3_ZbbUqi1cNqzghCuFo2wKUhuW-esetw4CEJkXtVSaEDxE0_1HeYpG8pZFkZrBDNBMwP8IEf-_HP8Nd145dEWAmHtT1l8MbSDXhh-Nu0ah0DLgj89NiyQHwzD6Cy-TpMQZ5tVmNaG7RibVyi_ZCIe0yVp5JM", "width": 4032}], "place_id": "ChIJIV3Fdsxj_ogRh1OofE-9gjQ", "plus_code": {"compound_code": "WXM2+X6 North Charleston, SC, USA", "global_code": "864XWXM2+X6"}, "price_level": 2, "rating": 3.8, "reference": "ChIJIV3Fdsxj_ogRh1OofE-9gjQ", "scope": "GOOGLE", "types": ["bar", "restaurant", "food", "point_of_interest", "establishment"], "user_ratings_total": 1294, "vicinity": "7400 Northside Drive, North Charleston"}, {"business_status": "OPERATIONAL", "geometry": {"location": {"lat": 32.9368851, "lng": -80.03890799999999}, "viewport": {"northeast": {"lat": 32.93827118029149, "lng": -80.0374453697085}, "southwest": {"lat": 32.93557321970849, "lng": -80.04014333029151}}}, "icon": "https://maps.gstatic.com/mapfiles/place_api/icons/v1/png_71/restaurant-71.png", "name": "Chipotle Mexican Grill", "opening_hours": {"open_now": true}, "photos": [{"height": 1180, "html_attributions": ["<a href=\"https://maps.google.com/maps/contrib/117002537574436815494\">Michael Young</a>"], "photo_reference": "Aap_uEDtrW3HS3T50DVYnvI8qbC1n2hjbIQXCcCMJpSOFOQOiWeAW-wuTtNaE6rQ7tWG4p0eu8O50NTzJzYn0IP3y0nhe_9_50woGv8JfSS4mXFWpr4o4OTU70SlYoI00bpfN1PxYLZ2nd2BQdEvxfxtfFXyNqnjLU2eJ5mjs4K6lgc5yHez", "width": 1834}], "place_id": "ChIJuZBB-8Rj_ogRXdwsqxz7_q8", "plus_code": {"compound_code": "WXP6+QC North Charleston, SC, USA", "global_code": "864XWXP6+QC"}, "price_level": 1, "rating": 3.9, "reference": "ChIJuZBB-8Rj_ogRXdwsqxz7_q8", "scope": "GOOGLE", "types": ["restaurant", "food", "point_of_interest", "establishment"], "user_ratings_total": 642, "vicinity": "7398 Rivers Avenue #102, North Charleston"}, {"business_status": "OPERATIONAL", "geometry": {"location": {"lat": 32.9399016, "lng": -80.03660959999999}, "viewport": {"northeast": {"lat": 32.9412104302915, "lng": -80.03535391970848}, "southwest": {"lat": 32.9385124697085, "lng": -80.03805188029149}}}, "icon": "https://maps.gstatic.com/mapfiles/place_api/icons/v1/png_71/restaurant-71.png", "name": "Subway", "opening_hours": {"open_now": true}, "photos": [{"height": 3024, "html_attributions": ["<a href=\"https://maps.google.com/maps/contrib/108715078108737755494\">Evan Guthrie</a>"], "photo_reference": "Aap_uEB_IDw7fSLw70Gvy2mECp1imkOW8El_pq0OQddwA8XSFWaG08-cf03GDl4GR3VlNPAV8_ZmiAudJ2Jvh6uMEKHzjdSKPEySZj7UNiWvzzAazxJChQbXpAlbS_PitVpNjlrfnex4z8JHtewWvhf84yry58jl2CQE_VV7D6zwlUDTutPJ", "width": 4032}], "place_id": "ChIJAfNNSsNj_ogRE1y52ItfAXo", "plus_code": {"compound_code": "WXQ7+X9 North Charleston, SC, USA", "global_code": "864XWXQ7+X9"}, "price_level": 1, "rating": 3.5, "reference": "ChIJAfNNSsNj_ogRE1y52ItfAXo", "scope": "GOOGLE", "types": ["meal_takeaway", "restaurant", "food", "point_of_interest", "establishment"], "user_ratings_total": 155, "vicinity": "7400 Rivers Avenue Unit 12, North Charleston"}, {"business_status": "OPERATIONAL", "geometry": {"location": {"lat": 32.9407612, "lng": -80.03840009999999}, "viewport": {"northeast": {"lat": 32.94215348029149, "lng": -80.03707816970848}, "southwest": {"lat": 32.9394555197085, "lng": -80.03977613029149}}}, "icon": "https://maps.gstatic.com/mapfiles/place_api/icons/v1/png_71/restaurant-71.png", "name": "Seasons Of Japan", "opening_hours": {"open_now": true}, "photos": [{"height": 2105, "html_attributions": ["<a href=\"https://maps.google.com/maps/contrib/117002537574436815494\">Michael Young</a>"], "photo_reference": "Aap_uEArxQjj6FK9zLPVNqM326cmd0wdYT0uIcaus99qeUmZ02zA5q91o9kvvX5QA6Kz9cEon4TMjlZgkrx6jucSeDORplYJHEVFoG9tZLP5sTwhCc0b7wTnng_II-fn3PALe7u5o_9qQVphO-rJa6Z1JQH5WDWpKVozAlXALGlyZvqZiK40", "width": 2268}], "place_id": "ChIJ-dlsdttj_ogRnGhYxRex3vs", "plus_code": {"compound_code": "WXR6+8J North Charleston, SC, USA", "global_code": "864XWXR6+8J"}, "price_level": 1, "rating": 4.2, "reference": "ChIJ-dlsdttj_ogRnGhYxRex3vs", "scope": "GOOGLE", "types": ["restaurant", "food", "point_of_interest", "establishment"], "user_ratings_total": 903, "vicinity": "7620 Rivers Avenue, North Charleston"}, {"business_status": "OPERATIONAL", "geometry": {"location": {"lat": 32.944396, "lng": -80.04435629999999}, "viewport": {"northeast": {"lat": 32.9452888302915, "lng": -80.04290636970849}, "southwest": {"lat": 32.9425908697085, "lng": -80.0456043302915}}}, "icon": "https://maps.gstatic.com/mapfiles/place_api/icons/v1/png_71/shopping-71.png", "name": "Auntie Anne's", "opening_hours": {"open_now": true}, "photos": [{"height": 359, "html_attributions": ["<a href=\"https://maps.google.com/maps/contrib/117057249187968221130\">Auntie Anne&#39;s</a>"], "photo_reference": "Aap_uEB1DSx0ss0nzPylN4D_wnL_Mk1aX7LtKkE08slKU6_s0yeALw9nq6bvQpiM6y7-EdPKzf3PMXr8VUqn1QMOqu2Zj5czdv7sSiG8BU31szwpwH3dJEquv4Xz9oDkwubI1pGY3c4ckiiijGqmmvVKkHBx4tnnlvoJulsBhCtIMkK3TZuQ", "width": 537}], "place_id": "ChIJqZ8wxtBj_ogRi-j3aC9EDXg", "plus_code": {"compound_code": "WXV4+Q7 Charleston, SC, USA", "global_code": "864XWXV4+Q7"}, "price_level": 1, "rating": 4.3, "reference": "ChIJqZ8wxtBj_ogRi-j3aC9EDXg", "scope": "GOOGLE", "types": ["bakery", "cafe", "restaurant", "food", "point_of_interest", "store", "establishment"], "user_ratings_total": 46, "vicinity": "2150 Northwoods Boulevard Unit C20, Charleston"}, {"business_status": "OPERATIONAL", "geometry": {"location": {"lat": 32.9404945, "lng": -80.0388794}, "viewport": {"northeast": {"lat": 32.9419065302915, "lng": -80.03757641970849}, "southwest": {"lat": 32.9392085697085, "lng": -80.04027438029149}}}, "icon": "https://maps.gstatic.com/mapfiles/place_api/icons/v1/png_71/restaurant-71.png", "name": "Wei Mei Asian Diner", "opening_hours": {"open_now": false}, "photos": [{"height": 1035, "html_attributions": ["<a href=\"https://maps.google.com/maps/contrib/117002537574436815494\">Michael Young</a>"], "photo_reference": "Aap_uEBHaJPQHq_rsYMGhztBL5aHOWd5cQyt-fEVS4IYTSk6JDkzfl83XdjY_BDQO3SQlGZQPn7llvCnu0qFNx0DX6irZGKBNLqpA634LVjILYPIil2rzm9TTo6rtncC8EXy6u3XAWGJuKksV5VdiSWGLTq9Qld_JOPhrnbGzoOu0BN2YcDc", "width": 1080}], "place_id": "ChIJV6GD99pj_ogR55Pcp32K_Ms", "plus_code": {"compound_code": "WXR6+5C North Charleston, SC, USA", "global_code": "864XWXR6+5C"}, "price_level": 1, "rating": 4.2, "reference": "ChIJV6GD99pj_ogR55Pcp32K_Ms", "scope": "GOOGLE", "types": ["meal_delivery", "restaurant", "food", "point_of_interest", "establishment"], "user_ratings_total": 210, "vicinity": "7620 Rivers Avenue, North Charleston"}, {"business_status": "OPERATIONAL", "geometry": {"location": {"lat": 32.9404449, "lng": -80.0387709}, "viewport": {"northeast": {"lat": 32.9418938302915, "lng": -80.0374945697085}, "southwest": {"lat": 32.9391958697085, "lng": -80.0401925302915}}}, "icon": "https://maps.gstatic.com/mapfiles/place_api/icons/v1/png_71/restaurant-71.png", "name": "Peno Mediterranean Grill", "opening_hours": {"open_now": true}, "photos": [{"height": 534, "html_attributions": ["<a href=\"https://maps.google.com/maps/contrib/117002537574436815494\">Michael Young</a>"], "photo_reference": "Aap_uEA443fb0f6UhAHYYFnYsQnxI9e_y-4uQrhyK5tReCMer8YiN6MgEFfVYTabPSMpMDo5yoZ1mJe2H3JIooAgizqzNN0DtpXuVS2ZUYX-FXBR7tvuNOniAumcbZC3k028yf9oKPhpoeue-fCsZufKHDQ2TRLhY3OfKe8E0t0sTXF2ldMN", "width": 720}], "place_id": "ChIJYdwtp9tj_ogRjxmnpWuRvfA", "plus_code": {"compound_code": "WXR6+5F North Charleston, SC, USA", "global_code": "864XWXR6+5F"}, "price_level": 1, "rating": 4.4, "reference": "ChIJYdwtp9tj_ogRjxmnpWuRvfA", "scope": "GOOGLE", "types": ["restaurant", "food", "point_of_interest", "establishment"], "user_ratings_total": 668, "vicinity": "7620 Rivers Avenue STE 375, North Charleston"}, {"business_status": "OPERATIONAL", "geometry": {"location": {"lat": 32.94524499999999, "lng": -80.04398499999999}, "viewport": {"northeast": {"lat": 32.9467764302915, "lng": -80.0425503697085}, "southwest": {"lat": 32.9440784697085, "lng": -80.0452483302915}}}, "icon": "https://maps.gstatic.com/mapfiles/place_api/icons/v1/png_71/restaurant-71.png", "name": "Charleys Cheesesteaks", "opening_hours": {"open_now": true}, "photos": [{"height": 600, "html_attributions": ["<a href=\"https://maps.google.com/maps/contrib/111688945027837886472\">Charleys Cheesesteaks</a>"], "photo_reference": "Aap_uECkRgwp4M0e9EKYFUoWSAhMgEGLjrEIu1uFhZKp3q1rtY3-c4IeUCs5h90udrLdFZPC4UJqIjerFKkg0hj2G_SWL3vb2vDtxdngK1ZzbMZzebQRay9vuQvJR-kuH9nzD82R4qG5QFuB-JiQPSuX3Bmn-2oVt7m_0gkvNEFW_DbUaREK", "width": 1080}], "place_id": "ChIJhRJlNNdj_ogRNGlTvgLylQk", "plus_code": {"compound_code": "WXW4+3C North Charleston, SC, USA", "global_code": "864XWXW4+3C"}, "price_level": 1, "rating": 4, "reference": "ChIJhRJlNNdj_ogRNGlTvgLylQk", "scope": "GOOGLE", "types": ["restaurant", "food", "point_of_interest", "establishment"], "user_ratings_total": 126, "vicinity": "2150 Northwoods Boulevard Unit FC3, North Charleston"}, {"business_status": "OPERATIONAL", "geometry": {"location": {"lat": 32.94543729999999, "lng": -80.0440289}, "viewport": {"northeast": {"lat": 32.94693263029149, "lng": -80.0425898197085}, "southwest": {"lat": 32.94423466970849, "lng": -80.0452877802915}}}, "icon": "https://maps.gstatic.com/mapfiles/place_api/icons/v1/png_71/restaurant-71.png", "name": "American Deli", "opening_hours": {"open_now": true}, "photos": [{"height": 608, "html_attributions": ["<a href=\"https://maps.google.com/maps/contrib/106344286852136235583\">American Deli</a>"], "photo_reference": "Aap_uED0HWzNUfXPEfHR9YRXXHjVBGvbDdtRdvMLRnIPhOjG3NTmYpAi5AVRutidplYTExpv-7jVJZhtECZQ-49zZF8-VU78omjrYV4DcQGZgLrfS8hbTSmtQo_6TVthM9595BZpI76ils84eZcRQRMfqWbLZXGwdBGKHrtrlCisTCedl-ZU", "width": 1080}], "place_id": "ChIJQziy7tlj_ogREeau2h3sD3Q", "plus_code": {"compound_code": "WXW4+59 North Charleston, SC, USA", "global_code": "864XWXW4+59"}, "price_level": 1, "rating": 3.6, "reference": "ChIJQziy7tlj_ogREeau2h3sD3Q", "scope": "GOOGLE", "types": ["restaurant", "food", "point_of_interest", "establishment"], "user_ratings_total": 67, "vicinity": "2150 Northwoods Boulevard #FC06, North Charleston"}, {"business_status": "OPERATIONAL", "geometry": {"location": {"lat": 32.9396314, "lng": -80.0459391}, "viewport": {"northeast": {"lat": 32.9410465802915, "lng": -80.04459721970849}, "southwest": {"lat": 32.9383486197085, "lng": -80.0472951802915}}}, "icon": "https://maps.gstatic.com/mapfiles/place_api/icons/v1/png_71/restaurant-71.png", "name": "Amici's Italian Bistro", "opening_hours": {"open_now": false}, "photos": [{"height": 1248, "html_attributions": ["<a href=\"https://maps.google.com/maps/contrib/117002537574436815494\">Michael Young</a>"], "photo_reference": "Aap_uEA2pxxpVfI5BP8atnmDcqJph6FAdjGvjwhFtQasA8dZOhK6w5N0XOgJCPS4P187auO_eC3DY3Px4tW9uMO5SZtZNSAtRGAgdXSls3hoU4Q8Qv_gdOZwPolTSotvhCPp3uUa0Q-XdBawYEcapt3hWhqbTEzpfPANxfNI0PAtGoofgIHq", "width": 1900}], "place_id": "ChIJI7Vu2NFj_ogR3t93wQATy5Y", "plus_code": {"compound_code": "WXQ3+VJ North Charleston, SC, USA", "global_code": "864XWXQ3+VJ"}, "price_level": 2, "rating": 4.1, "reference": "ChIJI7Vu2NFj_ogR3t93wQATy5Y", "scope": "GOOGLE", "types": ["restaurant", "food", "point_of_interest", "establishment"], "user_ratings_total": 679, "vicinity": "7648 Northwoods Boulevard, North Charleston"}, {"business_status": "OPERATIONAL", "geometry": {"location": {"lat": 32.936108, "lng": -80.03975799999999}, "viewport": {"northeast": {"lat": 32.9374468802915, "lng": -80.03836041970848}, "southwest": {"lat": 32.9347489197085, "lng": -80.0410583802915}}}, "icon": "https://maps.gstatic.com/mapfiles/place_api/icons/v1/png_71/cafe-71.png", "name": "Starbucks", "opening_hours": {"open_now": true}, "photos": [{"height": 3024, "html_attributions": ["<a href=\"https://maps.google.com/maps/contrib/114388876800918259432\">Rey C</a>"], "photo_reference": "Aap_uEABu4oiO13BCBShbher53TdRGdzBrbYHPVqhjGKi2FszxvTDtXbas7Z20A5y3efR13MYjzUMrV1VoUPpKiHv6F4yFq0QO4zq2V_XWXeIzjDCFF4xYRPcIRJdlhqXy-ijt4pYbpNFQ7G-NbwKFYZ4ohZZlHISoNDA-y0Dkw0L5H3nrWc", "width": 4032}], "place_id": "ChIJ4278q8Vj_ogR0du-C6ucEOQ", "plus_code": {"compound_code": "WXP6+C3 North Charleston, SC, USA", "global_code": "864XWXP6+C3"}, "price_level": 2, "rating": 4.3, "reference": "ChIJ4278q8Vj_ogR0du-C6ucEOQ", "scope": "GOOGLE", "types": ["cafe", "restaurant", "food", "point_of_interest", "store", "establishment"], "user_ratings_total": 1048, "vicinity": "7381 Rivers Avenue Ste 101, North Charleston"}, {"business_status": "OPERATIONAL", "geometry": {"location": {"lat": 32.9358528, "lng": -80.0407729}, "viewport": {"northeast": {"lat": 32.93737498029149, "lng": -80.0396480197085}, "southwest": {"lat": 32.9346770197085, "lng": -80.0423459802915}}}, "icon": "https://maps.gstatic.com/mapfiles/place_api/icons/v1/png_71/restaurant-71.png", "name": "Panera Bread", "opening_hours": {"open_now": true}, "photos": [{"height": 3024, "html_attributions": ["<a href=\"https://maps.google.com/maps/contrib/108715078108737755494\">Evan Guthrie</a>"], "photo_reference": "Aap_uEDnShTQbRzoM4ZApyNLRH607oCG6qMfYBAgKoUBTEUHbGYuuGgbeVnocRuee1Fx1n6jOvmc23OZcPPArnr-_CCq1neJvzxV1Tn5TzUKifzYfqqR4fwb2kyoRlPCvpjQFlRNelJ1jLgFOk9uBbFbKwkcp_t0UfQGXFHmo6pAhfwOl7j9", "width": 4032}], "place_id": "ChIJJ1YwOEBi_ogR_0ldJjYP5vA", "plus_code": {"compound_code": "WXP5+8M North Charleston, SC, USA", "global_code": "864XWXP5+8M"}, "price_level": 2, "rating": 3.8, "reference": "ChIJJ1YwOEBi_ogR_0ldJjYP5vA", "scope": "GOOGLE", "types": ["bakery", "meal_takeaway", "cafe", "restaurant", "food", "point_of_interest", "store", "establishment"], "user_ratings_total": 618, "vicinity": "2135 Ashley Phosphate Road, North Charleston"}, {"business_status": "OPERATIONAL", "geometry": {"location": {"lat": 32.9358734, "lng": -80.039553}, "viewport": {"northeast": {"lat": 32.93722648029149, "lng": -80.0381523197085}, "southwest": {"lat": 32.9345285197085, "lng": -80.04085028029151}}}, "icon": "https://maps.gstatic.com/mapfiles/place_api/icons/v1/png_71/restaurant-71.png", "name": "Panda Express", "opening_hours": {"open_now": true}, "photos": [{"height": 1536, "html_attributions": ["<a href=\"https://maps.google.com/maps/contrib/108715078108737755494\">Evan Guthrie</a>"], "photo_reference": "Aap_uEAXLAWv9xHV5GcYcBvDR7xWVVeE1UxSHvdK6rq338QAGguxxoH117wjN0Yrm27cfp5BItCVvdWYIq01roXDmvdlID0SCMy6Fm1vNWlBgp2tk_ZJISACES6FkNRGVsGPMapBtEIMMdN0zzm-lirsyUj1odl3cfxpvNWsU1bRzQ_YWuFz", "width": 2048}], "place_id": "ChIJQW8MRsRj_ogRuxhJbtGy7fY", "plus_code": {"compound_code": "WXP6+85 Charleston, SC, USA", "global_code": "864XWXP6+85"}, "price_level": 1, "rating": 3.8, "reference": "ChIJQW8MRsRj_ogRuxhJbtGy7fY", "scope": "GOOGLE", "types": ["restaurant", "food", "point_of_interest", "establishment"], "user_ratings_total": 499, "vicinity": "7379 Rivers Avenue, Charleston"}, {"business_status": "OPERATIONAL", "geometry": {"location": {"lat": 32.9338029, "lng": -80.03690739999999}, "viewport": {"northeast": {"lat": 32.9350354802915, "lng": -80.03537906970848}, "southwest": {"lat": 32.9323375197085, "lng": -80.0380770302915}}}, "icon": "https://maps.gstatic.com/mapfiles/place_api/icons/v1/png_71/restaurant-71.png", "name": "Tropical Smoothie Cafe", "opening_hours": {"open_now": true}, "photos": [{"height": 3024, "html_attributions": ["<a href=\"https://maps.google.com/maps/contrib/107004134760166541430\">Tropical Smoothie Cafe</a>"], "photo_reference": "Aap_uEAcY5rt2rMdRn4Z6qo1G1xrY-Srn4tCv-biV-cVVPWmi4Yo6fQDX2vpjpdjK0WJdpaH4ieFh_cqy9PJ70JMZrIWGzX4KUsHOYABJkYcH_eHqpmqCKCwwlKs1N_4MoCncy5qK6CUIFp2qK6eSsVugnaBoe95pG72zFsEZeSwu0ib2aS_", "width": 4032}], "place_id": "ChIJ39obB8Rj_ogRfRbFVnBmULo", "plus_code": {"compound_code": "WXM7+G6 North Charleston, SC, USA", "global_code": "864XWXM7+G6"}, "price_level": 1, "rating": 4.1, "reference": "ChIJ39obB8Rj_ogRfRbFVnBmULo", "scope": "GOOGLE", "types": ["restaurant", "food", "point_of_interest", "establishment"], "user_ratings_total": 292, "vicinity": "7250 Rivers Avenue Building 300, Suite 102, North Charleston"}, {"business_status": "OPERATIONAL", "geometry": {"location": {"lat": 32.9337572, "lng": -80.036992}, "viewport": {"northeast": {"lat": 32.93503988029151, "lng": -80.03559796970848}, "southwest": {"lat": 32.93234191970851, "lng": -80.0382959302915}}}, "icon": "https://maps.gstatic.com/mapfiles/place_api/icons/v1/png_71/restaurant-71.png", "name": "Five Guys", "opening_hours": {"open_now": true}, "photos": [{"height": 412, "html_attributions": ["<a href=\"https://maps.google.com/maps/contrib/108103248682001005613\">Five Guys</a>"], "photo_reference": "Aap_uEDAFzOljixatDawFBh4s8-XX6yL--DX71_Vi-iO1lzTMs6ogyCI5bgy6Xt-8UurPUzPuslQcS3OD6jNnAoBX0xsr7eEl6WKj74OaC2HtP-km9xc_1qNTKdTYlkyqG2PWHJ3BKMuvIStahs70wufk-cOqk5K-OW0g_SatiU0HRH8kVQZ", "width": 417}], "place_id": "ChIJa4hxAsRj_ogRFH-j6dajZIM", "plus_code": {"compound_code": "WXM7+G6 North Charleston, SC, USA", "global_code": "864XWXM7+G6"}, "price_level": 2, "rating": 4.3, "reference": "ChIJa4hxAsRj_ogRFH-j6dajZIM", "scope": "GOOGLE", "types": ["meal_takeaway", "restaurant", "food", "point_of_interest", "establishment"], "user_ratings_total": 619, "vicinity": "7250 Rivers Avenue, North Charleston"}, {"business_status": "OPERATIONAL", "geometry": {"location": {"lat": 32.93179, "lng": -80.03764}, "viewport": {"northeast": {"lat": 32.9331758302915, "lng": -80.03630891970849}, "southwest": {"lat": 32.9304778697085, "lng": -80.03900688029151}}}, "icon": "https://maps.gstatic.com/mapfiles/place_api/icons/v1/png_71/restaurant-71.png", "name": "Jersey Mike's Subs", "opening_hours": {"open_now": true}, "photos": [{"height": 3000, "html_attributions": ["<a href=\"https://maps.google.com/maps/contrib/104420927975024590397\">Jersey Mike&#39;s Subs</a>"], "photo_reference": "Aap_uEAOPrZ9NLNdJE8eFENNL_3obquYQ6b0bOavH9A32iCub6qzxgWoWgeCaJFAZP1TCZP4O4Nif0U0FD4ua4ptfbb0iBT9bPT2sRMaswdzwZRufXkj9XXQZuGLA4VUFmNSreYse3FsIuQpwDTNBPCjjs8gENLDAnRJMHdr9OaCskcuUpZS", "width": 4500}], "place_id": "ChIJnUpj5sBj_ogRO8u3M4faCVs", "plus_code": {"compound_code": "WXJ6+PW North Charleston, SC, USA", "global_code": "864XWXJ6+PW"}, "price_level": 1, "rating": 4.5, "reference": "ChIJnUpj5sBj_ogRO8u3M4faCVs", "scope": "GOOGLE", "types": ["meal_takeaway", "restaurant", "food", "point_of_interest", "store", "establishment"], "user_ratings_total": 364, "vicinity": "7225 Rivers Ave(Across From Target Ste. 203 Across From Target, North Charleston"}, {"business_status": "OPERATIONAL", "geometry": {"location": {"lat": 32.93186299999999, "lng": -80.037213}, "viewport": {"northeast": {"lat": 32.9332178302915, "lng": -80.03580856970848}, "southwest": {"lat": 32.9305198697085, "lng": -80.0385065302915}}}, "icon": "https://maps.gstatic.com/mapfiles/place_api/icons/v1/png_71/restaurant-71.png", "name": "Raising Cane's Chicken Fingers", "opening_hours": {"open_now": true}, "photos": [{"height": 3024, "html_attributions": ["<a href=\"https://maps.google.com/maps/contrib/108715078108737755494\">Evan Guthrie</a>"], "photo_reference": "Aap_uEBKcNAmGcKd8-I9LyVOhdns6x1ckvQPst4Fm65p0rEXcehD92XuUPiGzv_9oozGXZUdZToWDBEo2nWaDkUnV3jhYLIbV6OhDSkFkVt59pQxqut6kJ1q4dHWwUtk15XwWNfBHFfkMDL9LHD2gZYJ-sIV-8I435PSApp-OFUEhlL231za", "width": 4032}], "place_id": "ChIJYRIzyMZj_ogRymvd0a-gapU", "plus_code": {"compound_code": "WXJ7+P4 North Charleston, SC, USA", "global_code": "864XWXJ7+P4"}, "price_level": 1, "rating": 4.4, "reference": "ChIJYRIzyMZj_ogRymvd0a-gapU", "scope": "GOOGLE", "types": ["meal_takeaway", "restaurant", "food", "point_of_interest", "establishment"], "user_ratings_total": 1470, "vicinity": "7225 Rivers Avenue bldg 100, North Charleston"}, {"business_status": "OPERATIONAL", "geometry": {"location": {"lat": 32.9344897, "lng": -80.0509679}, "viewport": {"northeast": {"lat": 32.9358163802915, "lng": -80.0496628197085}, "southwest": {"lat": 32.9331184197085, "lng": -80.05236078029151}}}, "icon": "https://maps.gstatic.com/mapfiles/place_api/icons/v1/png_71/restaurant-71.png", "name": "Bojangles", "opening_hours": {"open_now": true}, "photos": [{"height": 585, "html_attributions": ["<a href=\"https://maps.google.com/maps/contrib/100791565899900347865\">Bojangles</a>"], "photo_reference": "Aap_uEBgsO9aBvB7q_oRDGTcql0FbQbnl4-_ClmivgZgWX1qFcZPaKiF9jKtBEXkZ-7Nuu2TBvEu0N5UoduII2GHdnvNFfb-_kAaHOnvbzq-fe7KZG0PrGYptYuhlJahD1k8uexqqXvRfzE0WTK6SFd_XuyDX3xmjtdHlpq-vij0VRMIMSoo", "width": 800}], "place_id": "ChIJrWIrfstj_ogRPoUAuC0HHOo", "plus_code": {"compound_code": "WWMX+QJ Charleston, SC, USA", "global_code": "864XWWMX+QJ"}, "price_level": 1, "rating": 3.5, "reference": "ChIJrWIrfstj_ogRPoUAuC0HHOo", "scope": "GOOGLE", "types": ["restaurant", "meal_takeaway", "food", "point_of_interest", "establishment"], "user_ratings_total": 644, "vicinity": "2508 Ashley Phosphate Road, Charleston"}, {"business_status": "OPERATIONAL", "geometry": {"location": {"lat": 32.9488581, "lng": -80.03916509999999}, "viewport": {"northeast": {"lat": 32.9502160302915, "lng": -80.03790426970848}, "southwest": {"lat": 32.9475180697085, "lng": -80.0406022302915}}}, "icon": "https://maps.gstatic.com/mapfiles/place_api/icons/v1/png_71/restaurant-71.png", "name": "China Buffet", "opening_hours": {"open_now": true}, "photos": [{"height": 700, "html_attributions": ["<a href=\"https://maps.google.com/maps/contrib/117400327855310583315\">China Buffet</a>"], "photo_reference": "Aap_uEDzCdlOIUHlX4YmRO7Q2pWMwXSTxXh288TcFrtYcENwma7bb-CU8SVCcMt2xBDqkv_rofqM84tc_pE8ByeCpcR8cl8FMxdgvaKRstpMnXBExS-TQn5dnDRrFew5zrO9mr9WbZi3YVsnKfkELtWd-Dg2Cu_f43XYexD-Nhsox2kl5Mi6", "width": 1242}], "place_id": "ChIJi785Ythj_ogRyzjaAeLniFE", "plus_code": {"compound_code": "WXX6+G8 North Charleston, SC, USA", "global_code": "864XWXX6+G8"}, "price_level": 1, "rating": 3.5, "reference": "ChIJi785Ythj_ogRyzjaAeLniFE", "scope": "GOOGLE", "types": ["restaurant", "food", "point_of_interest", "establishment"], "user_ratings_total": 850, "vicinity": "7800 Rivers Avenue #1850, North Charleston"}, {"business_status": "OPERATIONAL", "geometry": {"location": {"lat": 32.9409482, "lng": -80.0425739}, "viewport": {"northeast": {"lat": 32.9424213802915, "lng": -80.04120496970849}, "southwest": {"lat": 32.9397234197085, "lng": -80.0439029302915}}}, "icon": "https://maps.gstatic.com/mapfiles/place_api/icons/v1/png_71/restaurant-71.png", "name": "Hooters", "opening_hours": {"open_now": true}, "photos": [{"height": 1384, "html_attributions": ["<a href=\"https://maps.google.com/maps/contrib/117002537574436815494\">Michael Young</a>"], "photo_reference": "Aap_uEClAMV_lixJjbbqEuEJ_M0iiim07HEaUySyZFpG1aDC57OP9UAcmOYQ0K62a_Sr5fHfbvHF1dYvKGqazCWemg4pYSXl07LKenZHgyXXOrFRDV-b8ORTvQl2fjzCjw3JpdOub4oI_YmqRadxrSp0boN0VHKus9i7xOx3fD6BwSzuiOtI", "width": 2268}], "place_id": "ChIJpX0PeNBj_ogRyj5omY0Z8yQ", "plus_code": {"compound_code": "WXR4+9X Charleston, SC, USA", "global_code": "864XWXR4+9X"}, "price_level": 2, "rating": 4.2, "reference": "ChIJpX0PeNBj_ogRyj5omY0Z8yQ", "scope": "GOOGLE", "types": ["meal_takeaway", "bar", "restaurant", "food", "point_of_interest", "establishment"], "user_ratings_total": 1421, "vicinity": "2171 Northwoods Boulevard, Charleston"}, {"business_status": "OPERATIONAL", "geometry": {"location": {"lat": 32.9335418, "lng": -80.04934469999999}, "viewport": {"northeast": {"lat": 32.9349690802915, "lng": -80.04800751970849}, "southwest": {"lat": 32.9322711197085, "lng": -80.0507054802915}}}, "icon": "https://maps.gstatic.com/mapfiles/place_api/icons/v1/png_71/restaurant-71.png", "name": "IHOP", "opening_hours": {"open_now": true}, "photos": [{"height": 1836, "html_attributions": ["<a href=\"https://maps.google.com/maps/contrib/112021881382628021039\">Bob Link</a>"], "photo_reference": "Aap_uEAkjA38N9pwWqv6XeOvgXXtwr3URsEtiC2M9vODizL6ZbDQZtfjRn3JtF6DHAJD5moX2PFz1IpYby3TIpWvOZKRkgVgwp7ANrwpBzUeCEeiTHoq6wnSjOl_MXb_SjJMPRiT8hnk899I55ogIV_N2FhwchkhzuPvAtV8AGS0-WlMBAc_", "width": 3264}], "place_id": "ChIJkWlOg8tj_ogRIJ2riwxz3C4", "plus_code": {"compound_code": "WXM2+C7 North Charleston, SC, USA", "global_code": "864XWXM2+C7"}, "price_level": 1, "rating": 3.8, "reference": "ChIJkWlOg8tj_ogRIJ2riwxz3C4", "scope": "GOOGLE", "types": ["restaurant", "food", "point_of_interest", "establishment"], "user_ratings_total": 1628, "vicinity": "7361 Mazyck Road, North Charleston"}, {"business_status": "OPERATIONAL", "geometry": {"location": {"lat": 32.9387051, "lng": -80.04019629999999}, "viewport": {"northeast": {"lat": 32.9399703802915, "lng": -80.0389029697085}, "southwest": {"lat": 32.93727241970851, "lng": -80.04160093029151}}}, "icon": "https://maps.gstatic.com/mapfiles/place_api/icons/v1/png_71/restaurant-71.png", "name": "Jimmy John's", "opening_hours": {"open_now": true}, "photos": [{"height": 3024, "html_attributions": ["<a href=\"https://maps.google.com/maps/contrib/108715078108737755494\">Evan Guthrie</a>"], "photo_reference": "Aap_uEDkBU4mnDpeVvjrUbqyEE8QdA30EnFBJEwgFlGM0ykJU2tV_cI_-_3_QyxsCcStEwReK7fmgID10ig9PNz0l3zJCbHVUoTJ-rpJcQ-Uyq7rYSd4NS_0rrfL3SrRPfRJw3NmYFy8ZVUaxdkrJUDs2pYv_1gKYrS5XLy02mXM4EHd_4pF", "width": 4032}], "place_id": "ChIJcZN4MMVj_ogRLmU9QHiW-po", "plus_code": {"compound_code": "WXQ5+FW North Charleston, SC, USA", "global_code": "864XWXQ5+FW"}, "price_level": 1, "rating": 4.3, "reference": "ChIJcZN4MMVj_ogRLmU9QHiW-po", "scope": "GOOGLE", "types": ["meal_delivery", "meal_takeaway", "restaurant", "food", "point_of_interest", "establishment"], "user_ratings_total": 221, "vicinity": "7565 Rivers Avenue D, North Charleston"}, {"business_status": "OPERATIONAL", "geometry": {"location": {"lat": 32.9416356, "lng": -80.04634300000001}, "viewport": {"northeast": {"lat": 32.9429094802915, "lng": -80.04501681970851}, "southwest": {"lat": 32.9402115197085, "lng": -80.04771478029151}}}, "icon": "https://maps.gstatic.com/mapfiles/place_api/icons/v1/png_71/restaurant-71.png", "name": "Mei Thai Restaurant & Sushi Bar", "opening_hours": {"open_now": true}, "photos": [{"height": 1365, "html_attributions": ["<a href=\"https://maps.google.com/maps/contrib/102879509258696419422\">Wendy Mogul</a>"], "photo_reference": "Aap_uECm3NDdvmUvzwn6n0N4prxySogi8OczpacRzboosfytPANH570ozXFOYdx2vi2Z817MwzszvuLpEIucwv5KZJQs2K0ItIX3v_n5Av_mvhQpAAx2gko2CgxxJWIxlOsZfsIPgpyQYygunTnTIv6-ePrrUvVsgOstk2OHXct2cf_ktClZ", "width": 2048}], "place_id": "ChIJm3Jtl9Fj_ogRoG5O34ngYDM", "plus_code": {"compound_code": "WXR3+MF Charleston, SC, USA", "global_code": "864XWXR3+MF"}, "price_level": 1, "rating": 4.4, "reference": "ChIJm3Jtl9Fj_ogRoG5O34ngYDM", "scope": "GOOGLE", "types": ["restaurant", "food", "point_of_interest", "establishment"], "user_ratings_total": 764, "vicinity": "7685 Northwoods Boulevard, Charleston"}, {"business_status": "OPERATIONAL", "geometry": {"location": {"lat": 32.93594959999999, "lng": -80.0441645}, "viewport": {"northeast": {"lat": 32.93727543029149, "lng": -80.0429082697085}, "southwest": {"lat": 32.93457746970849, "lng": -80.04560623029151}}}, "icon": "https://maps.gstatic.com/mapfiles/place_api/icons/v1/png_71/restaurant-71.png", "name": "Denny's", "opening_hours": {"open_now": true}, "photos": [{"height": 1086, "html_attributions": ["<a href=\"https://maps.google.com/maps/contrib/117002537574436815494\">Michael Young</a>"], "photo_reference": "Aap_uEAOkM8FlZBNOVz0K6RrIJP6Q-AuOjEoDSHxZ_yluYHwJxIDd0CIfJ0ASiUvwplJjPVxqfGIRz1ScxAnbigob19aTLPW8E4WIpY2HwlmgEekFBhP4KV7f1kJM-LnTrxG94osBp2v15PGNa-rzH9ETvzbjQ5YtSgZ1Uz2j5k74YeidSTo", "width": 1892}], "place_id": "ChIJ83KXBc9j_ogRBAyQ5qMEORk", "plus_code": {"compound_code": "WXP4+98 North Charleston, SC, USA", "global_code": "864XWXP4+98"}, "price_level": 1, "rating": 3.5, "reference": "ChIJ83KXBc9j_ogRBAyQ5qMEORk", "scope": "GOOGLE", "types": ["restaurant", "food", "point_of_interest", "establishment"], "user_ratings_total": 1234, "vicinity": "2280 Ashley Phosphate Road, North Charleston"}, {"business_status": "OPERATIONAL", "geometry": {"location": {"lat": 32.9353031, "lng": -80.03795439999999}, "viewport": {"northeast": {"lat": 32.9365655802915, "lng": -80.03656041970848}, "southwest": {"lat": 32.9338676197085, "lng": -80.0392583802915}}}, "icon": "https://maps.gstatic.com/mapfiles/place_api/icons/v1/png_71/generic_business-71.png", "name": "Chuck E. Cheese", "opening_hours": {"open_now": true}, "photos": [{"height": 1000, "html_attributions": ["<a href=\"https://maps.google.com/maps/contrib/100600669643631409349\">Chuck E. Cheese</a>"], "photo_reference": "Aap_uEAEZyCzwVpkKWDdq_w1MDDmBpAmve4JMnIa72aV1EUcOoxRW_SjfgzykAySNt3pv_Z3zwBSN4Eoaeascga0hN4gKb61VKxjnki_uxOfDnW-GpLGjWYC_vO0H_EsxvN6L6ELKd1Rwj-GtwdY_2RW_9D8Jd0papB0AT2NGrZGowzoRTZU", "width": 1778}], "place_id": "ChIJw_hfQMJj_ogRoqiyaZco3lQ", "plus_code": {"compound_code": "WXP6+4R North Charleston, SC, USA", "global_code": "864XWXP6+4R"}, "price_level": 2, "rating": 4.2, "reference": "ChIJw_hfQMJj_ogRoqiyaZco3lQ", "scope": "GOOGLE", "types": ["restaurant", "food", "point_of_interest", "establishment"], "user_ratings_total": 856, "vicinity": "7258 Rivers Avenue, North Charleston"}, {"business_status": "OPERATIONAL", "geometry": {"location": {"lat": 32.9493911, "lng": -80.04115449999999}, "viewport": {"northeast": {"lat": 32.95067398029149, "lng": -80.0396596697085}, "southwest": {"lat": 32.9479760197085, "lng": -80.0423576302915}}}, "icon": "https://maps.gstatic.com/mapfiles/place_api/icons/v1/png_71/generic_business-71.png", "name": "Salon Lavish", "opening_hours": {"open_now": false}, "place_id": "ChIJ4793XdBj_ogRwunvk0ZIdSI", "plus_code": {"compound_code": "WXX5+QG North Charleston, SC, USA", "global_code": "864XWXX5+QG"}, "rating": 4.3, "reference": "ChIJ4793XdBj_ogRwunvk0ZIdSI", "scope": "GOOGLE", "types": ["beauty_salon", "restaurant", "food", "point_of_interest", "establishment"], "user_ratings_total": 7, "vicinity": "2080 Northbrook Boulevard suite b, North Charleston"}, {"business_status": "OPERATIONAL", "geometry": {"location": {"lat": 32.9424551, "lng": -80.0417056}, "viewport": {"northeast": {"lat": 32.9436851302915, "lng": -80.0403411697085}, "southwest": {"lat": 32.94098716970851, "lng": -80.04303913029152}}}, "icon": "https://maps.gstatic.com/mapfiles/place_api/icons/v1/png_71/restaurant-71.png", "name": "O'Charley\u2019s Restaurant & Bar", "opening_hours": {"open_now": true}, "photos": [{"height": 1834, "html_attributions": ["<a href=\"https://maps.google.com/maps/contrib/108715078108737755494\">Evan Guthrie</a>"], "photo_reference": "Aap_uECotwplLb018NsURc0CNj7ETRxV1aGcyiGrFqW5CEsMPG_ytNuNiT-eGm5QCo9-bXKDn-Opc6cdprcaTESdGfNIPbvTelT7uFGctk1ZwBdollqnS_6zxxXtTfeErSRQHnjcBVG4fc-26_FhV4P2ayR7UmdkDKVywt_QzTaxgJKcyXEr", "width": 1723}], "place_id": "ChIJqZ8wxtBj_ogRadM2-lfFlDc", "plus_code": {"compound_code": "WXR5+X8 North Charleston, SC, USA", "global_code": "864XWXR5+X8"}, "price_level": 2, "rating": 3.9, "reference": "ChIJqZ8wxtBj_ogRadM2-lfFlDc", "scope": "GOOGLE", "types": ["bar", "restaurant", "food", "point_of_interest", "establishment"], "user_ratings_total": 1295, "vicinity": "2150 Northwoods Boulevard, North Charleston"}, {"business_status": "OPERATIONAL", "geometry": {"location": {"lat": 32.9410788, "lng": -80.0396726}, "viewport": {"northeast": {"lat": 32.94236018029149, "lng": -80.0386232197085}, "southwest": {"lat": 32.9396622197085, "lng": -80.04132118029152}}}, "icon": "https://maps.gstatic.com/mapfiles/place_api/icons/v1/png_71/restaurant-71.png", "name": "Chick-fil-A", "opening_hours": {"open_now": true}, "photos": [{"height": 1104, "html_attributions": ["<a href=\"https://maps.google.com/maps/contrib/117002537574436815494\">Michael Young</a>"], "photo_reference": "Aap_uEDPR1Acku0Akm9w5qLBG7B-CnTxLX-WJLwcypGtDugVYmeIwWMcDNNsYW_Mhhhkxncy0cN8DgAhN9MVigS9FldxA4pUx-sDTMV-cYDquvYCAHU83g1mpfe8-abMVMptagSaeWKhb95RI8scL4npn3UTnXuBwjo1Cwr4QcF0Hw51GrRz", "width": 2268}], "place_id": "ChIJiySX5dpj_ogRzTBCTpF2Hs0", "plus_code": {"compound_code": "WXR6+C4 North Charleston, SC, USA", "global_code": "864XWXR6+C4"}, "price_level": 1, "rating": 4.6, "reference": "ChIJiySX5dpj_ogRzTBCTpF2Hs0", "scope": "GOOGLE", "types": ["restaurant", "food", "point_of_interest", "establishment"], "user_ratings_total": 3403, "vicinity": "7616 Rivers Avenue, North Charleston"}, {"business_status": "OPERATIONAL", "geometry": {"location": {"lat": 32.93333, "lng": -80.03658999999999}, "viewport": {"northeast": {"lat": 32.9347105302915, "lng": -80.03523096970851}, "southwest": {"lat": 32.9320125697085, "lng": -80.03792893029151}}}, "icon": "https://maps.gstatic.com/mapfiles/place_api/icons/v1/png_71/restaurant-71.png", "name": "Firehouse Subs N. Charleston", "opening_hours": {"open_now": true}, "photos": [{"height": 1712, "html_attributions": ["<a href=\"https://maps.google.com/maps/contrib/117002537574436815494\">Michael Young</a>"], "photo_reference": "Aap_uED7_0w0ngJ7NIECiCCAiVQtPZ1afJ3WkpZka7imEBnGmlfdjO_mO3MwWIzSl-A-KnDjP7qdybjxW8MyZrbzS5mNuPTbFpBDbVrg7nr13Qm-XWVDUnZ33ZkZ-r5iPqv37JO-s2l78Z-AC7790T1BoVXJZfR5KaRIO9GDqxBqsMLmszId", "width": 2268}], "place_id": "ChIJX9bcwMNj_ogRcnoZF8XZ1ts", "plus_code": {"compound_code": "WXM7+89 North Charleston, SC, USA", "global_code": "864XWXM7+89"}, "price_level": 1, "rating": 4.4, "reference": "ChIJX9bcwMNj_ogRcnoZF8XZ1ts", "scope": "GOOGLE", "types": ["restaurant", "food", "point_of_interest", "establishment"], "user_ratings_total": 259, "vicinity": "7250 Rivers Avenue Bldg 5, North Charleston"}, {"business_status": "OPERATIONAL", "geometry": {"location": {"lat": 32.9357247, "lng": -80.0454838}, "viewport": {"northeast": {"lat": 32.9370720802915, "lng": -80.0442409197085}, "southwest": {"lat": 32.9343741197085, "lng": -80.0469388802915}}}, "icon": "https://maps.gstatic.com/mapfiles/place_api/icons/v1/png_71/restaurant-71.png", "name": "Taco Bell", "opening_hours": {"open_now": true}, "photos": [{"height": 3024, "html_attributions": ["<a href=\"https://maps.google.com/maps/contrib/108715078108737755494\">Evan Guthrie</a>"], "photo_reference": "Aap_uEBkL-WhjoqaAD22fEIDxbjnS-n0fVF4CK4iE5nm3KyQDmLI8ckFzugspNvXNyYS6C9_FC81DXCamf6g0_vfIBTnq9A4smW7PPtBvi0rs1aSU71ijofO_yzeFUnhxennBMOzyT_ZAS8RuhGv7sZcT93OkvJp5vS-EkJtHg6zGPboBktf", "width": 4032}], "place_id": "ChIJJWbw485j_ogRXEVbFM3kIxQ", "plus_code": {"compound_code": "WXP3+7R North Charleston, SC, USA", "global_code": "864XWXP3+7R"}, "price_level": 1, "rating": 3.4, "reference": "ChIJJWbw485j_ogRXEVbFM3kIxQ", "scope": "GOOGLE", "types": ["meal_takeaway", "restaurant", "food", "point_of_interest", "establishment"], "user_ratings_total": 1405, "vicinity": "7373 Northwoods Boulevard, North Charleston"}, {"business_status": "OPERATIONAL", "geometry": {"location": {"lat": 32.936751, "lng": -80.0450023}, "viewport": {"northeast": {"lat": 32.93805688029149, "lng": -80.0437336697085}, "southwest": {"lat": 32.93535891970849, "lng": -80.04643163029151}}}, "icon": "https://maps.gstatic.com/mapfiles/place_api/icons/v1/png_71/restaurant-71.png", "name": "Wendy's", "opening_hours": {"open_now": true}, "photos": [{"height": 3024, "html_attributions": ["<a href=\"https://maps.google.com/maps/contrib/108715078108737755494\">Evan Guthrie</a>"], "photo_reference": "Aap_uECHh7Zfv15qaGpTuMNwrpM1t-g9_0Td98jbf7BMZGXJYH8iZ5XxGVhbUTGqGS1o43kyYtrPcp0gw4yi2HfvcyVcAWOU2z8OjekFp7X04kU0H43UOfi6tcA13Fe6no7TO6R-nTaQKDZrlzZDAeKo_6WA_fWg7DVDUANFtxcHVK6EVqTa", "width": 4032}], "place_id": "ChIJ3TwNAM9j_ogRUOTvU4b_2po", "plus_code": {"compound_code": "WXP3+PX Charleston, SC, USA", "global_code": "864XWXP3+PX"}, "price_level": 1, "rating": 3.7, "reference": "ChIJ3TwNAM9j_ogRUOTvU4b_2po", "scope": "GOOGLE", "types": ["restaurant", "food", "point_of_interest", "establishment"], "user_ratings_total": 1126, "vicinity": "7440 Northwoods Boulevard, Charleston"}, {"business_status": "OPERATIONAL", "geometry": {"location": {"lat": 32.9403556, "lng": -80.0389577}, "viewport": {"northeast": {"lat": 32.94174553029149, "lng": -80.03770981970848}, "southwest": {"lat": 32.93904756970849, "lng": -80.0404077802915}}}, "icon": "https://maps.gstatic.com/mapfiles/place_api/icons/v1/png_71/restaurant-71.png", "name": "Los Reyes Mexican Restaurant", "opening_hours": {"open_now": true}, "photos": [{"height": 3315, "html_attributions": ["<a href=\"https://maps.google.com/maps/contrib/112616521830255928362\">Los Reyes Mexican Restaurant</a>"], "photo_reference": "Aap_uECu3kY5lBm86ztipf4YJLeSdekyQrNjhzY1--5qBIgEW5oMJO5g5JMHmt8BUaHDGRP6lYDaAxhMTbU4S01jyUPYt0DdTecRJ6_yCq1mujbVdrS7JSrbCBtpLx2wIpVQmvGT8l6vs5xbPvzFnTibSN5ZbpvehNmGni0DzeUNH5qXZ_c1", "width": 4974}], "place_id": "ChIJ-dlsdttj_ogRfLm_D93hC5M", "plus_code": {"compound_code": "WXR6+4C North Charleston, SC, USA", "global_code": "864XWXR6+4C"}, "price_level": 1, "rating": 4.4, "reference": "ChIJ-dlsdttj_ogRfLm_D93hC5M", "scope": "GOOGLE", "types": ["restaurant", "food", "point_of_interest", "establishment"], "user_ratings_total": 1236, "vicinity": "7620 Rivers Avenue, North Charleston"}, {"business_status": "OPERATIONAL", "geometry": {"location": {"lat": 32.9453796, "lng": -80.0440516}, "viewport": {"northeast": {"lat": 32.94690378029149, "lng": -80.0426011697085}, "southwest": {"lat": 32.9442058197085, "lng": -80.04529913029153}}}, "icon": "https://maps.gstatic.com/mapfiles/place_api/icons/v1/png_71/restaurant-71.png", "name": "Cajun Cafe", "opening_hours": {"open_now": true}, "photos": [{"height": 395, "html_attributions": ["<a href=\"https://maps.google.com/maps/contrib/108621712359386222470\">Daryl Richardson</a>"], "photo_reference": "Aap_uECsYCkL_FocbQGcMK8exytnri1tKHRhrMLR9sloSXdp4-vKJ37D5wXct-XyBIfQrJQrx_ciClzDltjwDfbFHkAmIM9bY1EqlKvjhhrUjlpcGNuwBH9T5Bm_WBxs1FYYvCBFWA00vrsV73uGejkG7LbHj3xnhhRFTXSvIe3AbuukoydF", "width": 534}], "place_id": "ChIJqZ8wxtBj_ogRlbTV28FNUus", "plus_code": {"compound_code": "WXW4+59 North Charleston, SC, USA", "global_code": "864XWXW4+59"}, "rating": 2.9, "reference": "ChIJqZ8wxtBj_ogRlbTV28FNUus", "scope": "GOOGLE", "types": ["restaurant", "food", "point_of_interest", "establishment"], "user_ratings_total": 13, "vicinity": "2150 Northwoods Boulevard, North Charleston"}, {"business_status": "OPERATIONAL", "geometry": {"location": {"lat": 32.9451768, "lng": -80.04306609999999}, "viewport": {"northeast": {"lat": 32.9462855802915, "lng": -80.04153551970849}, "southwest": {"lat": 32.9435876197085, "lng": -80.0442334802915}}}, "icon": "https://maps.gstatic.com/mapfiles/place_api/icons/v1/png_71/restaurant-71.png", "name": "Chick-fil-A", "opening_hours": {"open_now": true}, "photos": [{"height": 3024, "html_attributions": ["<a href=\"https://maps.google.com/maps/contrib/108715078108737755494\">Evan Guthrie</a>"], "photo_reference": "Aap_uECr9vVaf_rKjTsY3kMPMOj6tNQ-NZDrkE4_psk5s-sQ8vyEDP05U22jT303CYKJxemR7tOEmiXDL_-4uSWdvL6wc0-UnEw8Hz66wRBRhEhW0mtMwN9SyTA9sYNtM0iNRyJBj2NPyYcWInaQy-wHoKIkO82H_nuiCbbsUpbLw0SCVrqC", "width": 4032}], "place_id": "ChIJqZ8wxtBj_ogRg6PcJldViLE", "plus_code": {"compound_code": "WXW4+3Q North Charleston, SC, USA", "global_code": "864XWXW4+3Q"}, "price_level": 1, "rating": 4.5, "reference": "ChIJqZ8wxtBj_ogRg6PcJldViLE", "scope": "GOOGLE", "types": ["restaurant", "food", "point_of_interest", "establishment"], "user_ratings_total": 391, "vicinity": "2150 Northwoods Boulevard Unit B4, North Charleston"}, {"business_status": "OPERATIONAL", "geometry": {"location": {"lat": 32.9399993, "lng": -80.0366368}, "viewport": {"northeast": {"lat": 32.9412995802915, "lng": -80.0353938197085}, "southwest": {"lat": 32.9386016197085, "lng": -80.03809178029151}}}, "icon": "https://maps.gstatic.com/mapfiles/place_api/icons/v1/png_71/restaurant-71.png", "name": "Number One Kitchen", "opening_hours": {"open_now": true}, "photos": [{"height": 1836, "html_attributions": ["<a href=\"https://maps.google.com/maps/contrib/106981807660937960391\">PETER LEE</a>"], "photo_reference": "Aap_uEAqha3rIpYs_8NZublHZbMDd2f4wCep7P1lvAxjBWt0zxeUX4_2Oj9ziJFtOCGMLkv3GuUGUb_SJoQmt263oMWHJVg5B4nXI9nEuLalYrUKWebmu-1b-JeBoQwFgNnwuTP1R1JxSmFVUeN6zkynMOo0FUGSvYVZu01Yj8BbH5p21obj", "width": 3264}], "place_id": "ChIJAfNNSsNj_ogRw_F35gOX4kw", "plus_code": {"compound_code": "WXQ7+X8 North Charleston, SC, USA", "global_code": "864XWXQ7+X8"}, "rating": 3.8, "reference": "ChIJAfNNSsNj_ogRw_F35gOX4kw", "scope": "GOOGLE", "types": ["meal_delivery", "meal_takeaway", "restaurant", "food", "point_of_interest", "establishment"], "user_ratings_total": 222, "vicinity": "7400 Rivers Avenue J, North Charleston"}, {"business_status": "OPERATIONAL", "geometry": {"location": {"lat": 32.934672, "lng": -80.0503457}, "viewport": {"northeast": {"lat": 32.9360200302915, "lng": -80.0489052197085}, "southwest": {"lat": 32.9333220697085, "lng": -80.05160318029151}}}, "icon": "https://maps.gstatic.com/mapfiles/place_api/icons/v1/png_71/restaurant-71.png", "name": "McDonald's", "opening_hours": {"open_now": true}, "photos": [{"height": 768, "html_attributions": ["<a href=\"https://maps.google.com/maps/contrib/102368636704431475952\">McDonald&#39;s</a>"], "photo_reference": "Aap_uECvV18lAbnlx56T78JTk01T1p6xEoV-xQl4GSXUhZKL_GQfx4wcrY3t6URSZ13kz7GyzS9kI7UHrlqVK-2474uMcOiiNEA3hmAESrrjyMbp2Jy7jIb_vSe99Bg2JNBlKWmKv0Z2dXO4m4EYt5utW9eLtqxY2Kx4uC8SFwoKaT1quEfi", "width": 1025}], "place_id": "ChIJUakEfMxj_ogRQQYPQRfz7hs", "plus_code": {"compound_code": "WWMX+VV Charleston, SC, USA", "global_code": "864XWWMX+VV"}, "price_level": 1, "rating": 3.5, "reference": "ChIJUakEfMxj_ogRQQYPQRfz7hs", "scope": "GOOGLE", "types": ["cafe", "restaurant", "food", "point_of_interest", "store", "establishment"], "user_ratings_total": 1691, "vicinity": "2500 Ashley Phosphate Road, Charleston"}, {"business_status": "OPERATIONAL", "geometry": {"location": {"lat": 32.94527929999999, "lng": -80.0440418}, "viewport": {"northeast": {"lat": 32.94685363029149, "lng": -80.04259626970851}, "southwest": {"lat": 32.94415566970849, "lng": -80.04529423029152}}}, "icon": "https://maps.gstatic.com/mapfiles/place_api/icons/v1/png_71/restaurant-71.png", "name": "China Max", "opening_hours": {"open_now": true}, "photos": [{"height": 2988, "html_attributions": ["<a href=\"https://maps.google.com/maps/contrib/107101199253766658967\">Chris Duvall</a>"], "photo_reference": "Aap_uEBr4niSjXamWDyiJV1GCAQlfJV9FZZOGmEQ43B9aQiUeRKJttcNJpOJFjFiEMhmIY7KZ_0qtnnesUUzCOEisY-PMzAMzir9hnq64vGE2OAeNogWmdd9lqXCJW0syvk8gIAtYKctf-pH8aMEUZFVB3piNu4pAqUGTZUHBN6-BdpmXncI", "width": 5312}], "place_id": "ChIJqZ8wxtBj_ogRd8OfJpHb2Vk", "plus_code": {"compound_code": "WXW4+49 North Charleston, SC, USA", "global_code": "864XWXW4+49"}, "price_level": 1, "rating": 3.4, "reference": "ChIJqZ8wxtBj_ogRd8OfJpHb2Vk", "scope": "GOOGLE", "types": ["restaurant", "food", "point_of_interest", "establishment"], "user_ratings_total": 10, "vicinity": "2150 Northwoods Boulevard, North Charleston"}, {"business_status": "OPERATIONAL", "geometry": {"location": {"lat": 32.938956, "lng": -80.04030499999999}, "viewport": {"northeast": {"lat": 32.9403671302915, "lng": -80.03896211970849}, "southwest": {"lat": 32.9376691697085, "lng": -80.04166008029149}}}, "icon": "https://maps.gstatic.com/mapfiles/place_api/icons/v1/png_71/restaurant-71.png", "name": "Poblanos Mexican Restaurant", "opening_hours": {"open_now": true}, "photos": [{"height": 3024, "html_attributions": ["<a href=\"https://maps.google.com/maps/contrib/112332985050244413726\">Poblanos Mexican Restaurant</a>"], "photo_reference": "Aap_uEDo8MX5FsVfabO-mC1xx4cQORW2gkPzacsdU_oF-sL-FndTVMUv6GhTxyIaLDvnzPAf7qEiL7k2KtvJlXnWLURG36LeMP8L_NeMmYktfKhmjb67m5zT6OI-dArmhMIkIlJBAJ9OVyRTJd2kOFEl5TD9DVode44ujH3WP9yE8ZoJRrBz", "width": 4032}], "place_id": "ChIJv3CR0tpj_ogRjkjQ5cIiV2c", "plus_code": {"compound_code": "WXQ5+HV North Charleston, SC, USA", "global_code": "864XWXQ5+HV"}, "price_level": 2, "rating": 4.1, "reference": "ChIJv3CR0tpj_ogRjkjQ5cIiV2c", "scope": "GOOGLE", "types": ["bar", "restaurant", "food", "point_of_interest", "establishment"], "user_ratings_total": 1096, "vicinity": "7571 Rivers Avenue, North Charleston"}, {"business_status": "OPERATIONAL", "geometry": {"location": {"lat": 32.9416785, "lng": -80.03879700000002}, "viewport": {"northeast": {"lat": 32.94306248029149, "lng": -80.0374535697085}, "southwest": {"lat": 32.9403645197085, "lng": -80.04015153029151}}}, "icon": "https://maps.gstatic.com/mapfiles/place_api/icons/v1/png_71/restaurant-71.png", "name": "Poke cafe North charleston", "opening_hours": {"open_now": true}, "photos": [{"height": 3024, "html_attributions": ["<a href=\"https://maps.google.com/maps/contrib/105712743836277493783\">Poke cafe North charleston</a>"], "photo_reference": "Aap_uED5H-9B55XBJmAYG-zPOBpnoSl2YVj0euWGhJRWOWu2-nK3TOeJrWiAcetrRS8DUEdyGRc8oWGfPmk9dv-pzJq5XjLBcSzuoC5AbQRlvCbUVem-rni4nSvcx_jdi-cN8iOoYx3riR05gVtIFtzOtyL5HTUqgChFAVePF2LqvgwYpC0P", "width": 3024}], "place_id": "ChIJdWDTxhlj_ogRdFW40GbWqa8", "plus_code": {"compound_code": "WXR6+MF North Charleston, SC, USA", "global_code": "864XWXR6+MF"}, "reference": "ChIJdWDTxhlj_ogRdFW40GbWqa8", "scope": "GOOGLE", "types": ["restaurant", "food", "point_of_interest", "establishment"], "vicinity": "7620 Rivers Avenue #355, North Charleston"}, {"business_status": "OPERATIONAL", "geometry": {"location": {"lat": 32.940636, "lng": -80.03860329999999}, "viewport": {"northeast": {"lat": 32.9420423802915, "lng": -80.03729011970847}, "southwest": {"lat": 32.9393444197085, "lng": -80.03998808029148}}}, "icon": "https://maps.gstatic.com/mapfiles/place_api/icons/v1/png_71/restaurant-71.png", "name": "Poke Cafe", "opening_hours": {"open_now": true}, "photos": [{"height": 3024, "html_attributions": ["<a href=\"https://maps.google.com/maps/contrib/116361925083900001763\">Poke Cafe</a>"], "photo_reference": "Aap_uEB4KlcQHS_qQBPb5MwzmK9eQ6YRuz6O2ziP8fF0SPn_oZcWM780VG9g7qqehk40vtrcy0AHGN-WNlJ92V3kI3asj4nnqpM6uIMMXwaWWr2zjVzjpiPUYEWnvV9VuVTEOh9a4Xt1b0Si5werVr1vh-9bzVK9JS6XkCF0oBo6mLydZ_Ui", "width": 4032}], "place_id": "ChIJsTTkdWNj_ogRqkhrXc9StUo", "plus_code": {"compound_code": "WXR6+7H North Charleston, SC, USA", "global_code": "864XWXR6+7H"}, "rating": 4.7, "reference": "ChIJsTTkdWNj_ogRqkhrXc9StUo", "scope": "GOOGLE", "types": ["restaurant", "food", "point_of_interest", "establishment"], "user_ratings_total": 322, "vicinity": "7620 Rivers Avenue #355, North Charleston"}, {"business_status": "OPERATIONAL", "geometry": {"location": {"lat": 32.9406909, "lng": -80.0384926}, "viewport": {"northeast": {"lat": 32.9420948302915, "lng": -80.0371779197085}, "southwest": {"lat": 32.9393968697085, "lng": -80.0398758802915}}}, "icon": "https://maps.gstatic.com/mapfiles/place_api/icons/v1/png_71/restaurant-71.png", "name": "Flying Legs", "opening_hours": {"open_now": true}, "photos": [{"height": 2268, "html_attributions": ["<a href=\"https://maps.google.com/maps/contrib/104244417727081409121\">Flying Legs</a>"], "photo_reference": "Aap_uEAF7yMRLT_uRuQBZZYJUvdtZx2yzaBiOG3KIAzLSVi0-FcvZaUcKdFmzy1tZmW5IRmmwi3ID5PXEoHnJaDAAIVNechRCYtUvA1gBQvlBkLKIgLa1pQoMlPhbmcIYyzopoBK8OZEC478nKrpN82XCSjpe_CjP8WKSviD-Kx0ijo-YA_o", "width": 4032}], "place_id": "ChIJL8Xl7rhj_ogR1STptD9EltI", "plus_code": {"compound_code": "WXR6+7J North Charleston, SC, USA", "global_code": "864XWXR6+7J"}, "rating": 3.8, "reference": "ChIJL8Xl7rhj_ogR1STptD9EltI", "scope": "GOOGLE", "types": ["meal_takeaway", "restaurant", "food", "point_of_interest", "establishment"], "user_ratings_total": 20, "vicinity": "7620 Rivers Avenue, North Charleston"}, {"business_status": "OPERATIONAL", "geometry": {"location": {"lat": 32.9453157, "lng": -80.03940329999999}, "viewport": {"northeast": {"lat": 32.94663118029151, "lng": -80.03811391970848}, "southwest": {"lat": 32.94393321970851, "lng": -80.04081188029149}}}, "icon": "https://maps.gstatic.com/mapfiles/place_api/icons/v1/png_71/restaurant-71.png", "name": "Boxcar Betty's", "opening_hours": {"open_now": true}, "photos": [{"height": 3024, "html_attributions": ["<a href=\"https://maps.google.com/maps/contrib/108715078108737755494\">Evan Guthrie</a>"], "photo_reference": "Aap_uED2mEKx-o5RnBnpfowUVEJEG-RxTWN8vRc4eoK2IjQ6zXy-jBGgf9znE0sBp25__b_waAqWXxsHShQiVEWryAYSgBCBqEjjFbmfKRb5tIuu0-M5_xaKIa_nsZp-Rn9do1LQsZFbMw_CD13drVKoaMWdWblr_oveDYYdg4ngkXPFFg3_", "width": 4032}], "place_id": "ChIJB0vekO5j_ogRX2JEBYI75Rs", "plus_code": {"compound_code": "WXW6+46 North Charleston, SC, USA", "global_code": "864XWXW6+46"}, "rating": 4.5, "reference": "ChIJB0vekO5j_ogRX2JEBYI75Rs", "scope": "GOOGLE", "types": ["restaurant", "food", "point_of_interest", "establishment"], "user_ratings_total": 432, "vicinity": "7800 Rivers Avenue #1090, North Charleston"}, {"business_status": "OPERATIONAL", "geometry": {"location": {"lat": 32.94100170000001, "lng": -80.0452667}, "viewport": {"northeast": {"lat": 32.9424325302915, "lng": -80.04385421970849}, "southwest": {"lat": 32.93973456970851, "lng": -80.04655218029151}}}, "icon": "https://maps.gstatic.com/mapfiles/place_api/icons/v1/png_71/restaurant-71.png", "name": "Red Crab Juicy Seafood", "opening_hours": {"open_now": true}, "photos": [{"height": 1129, "html_attributions": ["<a href=\"https://maps.google.com/maps/contrib/117002537574436815494\">Michael Young</a>"], "photo_reference": "Aap_uEB5nHWhyLV9VMNC44bt0R-jAf1qCLy741uDNk1AItXgFpQ0ofTB7xN3lQiYaB1g4zuO_hLxq9meog004AvZl2Cxbwz_ImKrVN8UDb3MDsp5HyvcwWTFvwfrXPNvk-NJZuapZvQHVbjedK_rHUMLcsjmGA5kGpfYqg4T5bBuSC4dk098", "width": 2268}], "place_id": "ChIJjS0KUs9j_ogRVFHl7gOsS3k", "plus_code": {"compound_code": "WXR3+CV North Charleston, SC, USA", "global_code": "864XWXR3+CV"}, "price_level": 2, "rating": 4.3, "reference": "ChIJjS0KUs9j_ogRVFHl7gOsS3k", "scope": "GOOGLE", "types": ["restaurant", "food", "point_of_interest", "establishment"], "user_ratings_total": 857, "vicinity": "7690 Northwoods Boulevard, North Charleston"}, {"business_status": "OPERATIONAL", "geometry": {"location": {"lat": 32.9447225, "lng": -80.0447602}, "viewport": {"northeast": {"lat": 32.94582073029149, "lng": -80.0440394697085}, "southwest": {"lat": 32.94312276970849, "lng": -80.04673743029151}}}, "icon": "https://maps.gstatic.com/mapfiles/place_api/icons/v1/png_71/restaurant-71.png", "name": "Stones Throw Tavern", "opening_hours": {"open_now": true}, "photos": [{"height": 2000, "html_attributions": ["<a href=\"https://maps.google.com/maps/contrib/109940332392504930752\">Stones Throw Tavern</a>"], "photo_reference": "Aap_uEA6gUoaBY-PhVimQZzb1azx6oEpmZ7xNP_OJmTFiV1mRH8crrkY6udhnRfJPElJCttdHu2WImM9ndoT4SELIyQSp7mqCYMKfFd7ToSr36-v5hN1Y44k0BQZW9xlQMEnOGZo43G2Z44kRgIP1cID8yHaWgjDpFLyQugcd_tI5PSP-J4z", "width": 3000}], "place_id": "ChIJ2ykh8RRj_ogRxzX3JvFpiKs", "plus_code": {"compound_code": "WXV4+V3 North Charleston, SC, USA", "global_code": "864XWXV4+V3"}, "rating": 3.5, "reference": "ChIJ2ykh8RRj_ogRxzX3JvFpiKs", "scope": "GOOGLE", "types": ["restaurant", "food", "point_of_interest", "establishment"], "user_ratings_total": 23, "vicinity": "2150 Northwoods Boulevard H640, North Charleston"}, {"business_status": "OPERATIONAL", "geometry": {"location": {"lat": 32.9454697, "lng": -80.0438649}, "viewport": {"northeast": {"lat": 32.9469488302915, "lng": -80.04252616970851}, "southwest": {"lat": 32.9442508697085, "lng": -80.04522413029152}}}, "icon": "https://maps.gstatic.com/mapfiles/place_api/icons/v1/png_71/restaurant-71.png", "name": "Restaurante", "place_id": "ChIJ7S-8j8pj_ogRqXEmJSdkFG0", "plus_code": {"compound_code": "WXW4+5F North Charleston, SC, USA", "global_code": "864XWXW4+5F"}, "reference": "ChIJ7S-8j8pj_ogRqXEmJSdkFG0", "scope": "GOOGLE", "types": ["restaurant", "food", "point_of_interest", "establishment"], "vicinity": "2150 Northwoods Boulevard, North Charleston"}, {"business_status": "OPERATIONAL", "geometry": {"location": {"lat": 32.9454791, "lng": -80.044007}, "viewport": {"northeast": {"lat": 32.9469535302915, "lng": -80.0425788697085}, "southwest": {"lat": 32.9442555697085, "lng": -80.04527683029151}}}, "icon": "https://maps.gstatic.com/mapfiles/place_api/icons/v1/png_71/restaurant-71.png", "name": "Japanese K", "opening_hours": {"open_now": true}, "place_id": "ChIJSevENtdj_ogRtvMnr4Wqtjg", "plus_code": {"compound_code": "WXW4+59 North Charleston, SC, USA", "global_code": "864XWXW4+59"}, "rating": 1.9, "reference": "ChIJSevENtdj_ogRtvMnr4Wqtjg", "scope": "GOOGLE", "types": ["restaurant", "food", "point_of_interest", "establishment"], "user_ratings_total": 17, "vicinity": "2150 Northwoods Boulevard, North Charleston"}, {"business_status": "OPERATIONAL", "geometry": {"location": {"lat": 32.9469991, "lng": -80.0423515}, "viewport": {"northeast": {"lat": 32.9482726302915, "lng": -80.04085876970849}, "southwest": {"lat": 32.9455746697085, "lng": -80.04355673029151}}}, "icon": "https://maps.gstatic.com/mapfiles/place_api/icons/v1/png_71/restaurant-71.png", "name": "Bahama Breeze", "opening_hours": {"open_now": false}, "photos": [{"height": 3024, "html_attributions": ["<a href=\"https://maps.google.com/maps/contrib/109675153927775089987\">Luis Garcia</a>"], "photo_reference": "Aap_uECncNTbxM1EFt2NmP5h9TKqo3Xyf23GoBM-e4rGzB-5gKrXFkDECJpKrPgC8qXkZ9b6fS4ZpLT05I_9EdeceOIc-Bjd-XnJ0aYlBzh26qc_mdK3ZuwHMZEbnJcT1gw0LJmiiJzz6LRfIkY5a_bUSH5y0zTgmhALobPqcAsXYPm-mDQ", "width": 4032}], "place_id": "ChIJ3VstYO1j_ogRW8GPUZgjS20", "plus_code": {"compound_code": "WXW5+Q3 Charleston, SC, USA", "global_code": "864XWXW5+Q3"}, "rating": 4.2, "reference": "ChIJ3VstYO1j_ogRW8GPUZgjS20", "scope": "GOOGLE", "types": ["meal_takeaway", "bar", "restaurant", "food", "point_of_interest", "establishment"], "user_ratings_total": 245, "vicinity": "7811 Rivers Avenue, Charleston"}, {"business_status": "OPERATIONAL", "geometry": {"location": {"lat": 32.88139819999999, "lng": -79.97696859999999}, "viewport": {"northeast": {"lat": 32.8828116302915, "lng": -79.97553746970848}, "southwest": {"lat": 32.8801136697085, "lng": -79.97823543029149}}}, "icon": "https://maps.gstatic.com/mapfiles/place_api/icons/v1/png_71/restaurant-71.png", "name": "EVO Pizzeria", "opening_hours": {"open_now": false}, "photos": [{"height": 2988, "html_attributions": ["<a href=\"https://maps.google.com/maps/contrib/107269629431553606640\">Tyler Thrasher</a>"], "photo_reference": "Aap_uEA-x3GaNdTa_3Su9aIesfYyzDhYT-EK0h89GUCzvOhyAjPCgqJIHnukRfFPZAPXEKdJJVSzs-4610QDIj1Hw1YCqgbCCfMMfSsegUdCcz2mcZ865whPZ6Qnixvso_ARnLLT7EpGtf4Yl07P1Qv6_-Ydo2K-6TtKkgIMoDJnaLzjFicU", "width": 3984}], "place_id": "ChIJS79_9uhk_ogRXzmiDtLKcjo", "plus_code": {"compound_code": "V2JF+H6 North Charleston, SC, USA", "global_code": "8742V2JF+H6"}, "price_level": 2, "rating": 4.6, "reference": "ChIJS79_9uhk_ogRXzmiDtLKcjo", "scope": "GOOGLE", "types": ["restaurant", "food", "point_of_interest", "establishment"], "user_ratings_total": 1514, "vicinity": "1075 East Montague Avenue, North Charleston"}, {"business_status": "OPERATIONAL", "geometry": {"location": {"lat": 32.88077799999999, "lng": -79.979995}, "viewport": {"northeast": {"lat": 32.8821266302915, "lng": -79.97873926970851}, "southwest": {"lat": 32.8794286697085, "lng": -79.98143723029152}}}, "icon": "https://maps.gstatic.com/mapfiles/place_api/icons/v1/png_71/restaurant-71.png", "name": "Sesame Burgers & Beer", "opening_hours": {"open_now": true}, "photos": [{"height": 4032, "html_attributions": ["<a href=\"https://maps.google.com/maps/contrib/106461387544103812994\">Kristin Sindorf</a>"], "photo_reference": "Aap_uEDu1nTVTDl0KihXWQmCFFL0i5LeCTMiaqOwbq-AFnSkWbgVy8jFoiOlWNMY5obt4JztYbmG21c24kmbsqvRa0erywCG-ESata9u6OI3MfMN3IAv7Tk25SLdZ6fTNEJx1vGQM91eRHx9HDe62SpsS3YaK5zKwbV6MZGnDN5Ol6VaD6Uf", "width": 3024}], "place_id": "ChIJl1_vmulk_ogROpCvs6ao7n0", "plus_code": {"compound_code": "V2JC+82 North Charleston, SC, USA", "global_code": "8742V2JC+82"}, "price_level": 2, "rating": 4.5, "reference": "ChIJl1_vmulk_ogROpCvs6ao7n0", "scope": "GOOGLE", "types": ["bar", "restaurant", "food", "point_of_interest", "establishment"], "user_ratings_total": 1805, "vicinity": "4726 Spruill Avenue, North Charleston"}, {"business_status": "OPERATIONAL", "geometry": {"location": {"lat": 32.8817026, "lng": -79.9751575}, "viewport": {"northeast": {"lat": 32.8829760302915, "lng": -79.97383051970849}, "southwest": {"lat": 32.8802780697085, "lng": -79.9765284802915}}}, "icon": "https://maps.gstatic.com/mapfiles/place_api/icons/v1/png_71/bar-71.png", "name": "Madra Rua Irish Pub", "opening_hours": {"open_now": true}, "photos": [{"height": 427, "html_attributions": ["<a href=\"https://maps.google.com/maps/contrib/107702180079169865469\">Madra Rua Irish Pub</a>"], "photo_reference": "Aap_uEDk8nrJxhTBbMmvC6a-iKL9juiIp1qZH1sjpjEO1K0au9Zn-_hHpLZ3vJGRb5Xp-uRhYeYpm14-zPFh3UyH5zRnZyaCOxSLbyNyuPuS00Jgdx7YrUxYBE4Dm3_WBNmMp1C5tWJMGa_hRHLoOy0dGzs_b7z6TgZpAR-ANgDtm_gKfDxe", "width": 640}], "place_id": "ChIJ9xlmJ-Zk_ogRGst7T3-fsfY", "plus_code": {"compound_code": "V2JF+MW North Charleston, SC, USA", "global_code": "8742V2JF+MW"}, "price_level": 2, "rating": 4.6, "reference": "ChIJ9xlmJ-Zk_ogRGst7T3-fsfY", "scope": "GOOGLE", "types": ["bar", "restaurant", "food", "point_of_interest", "establishment"], "user_ratings_total": 992, "vicinity": "1034 East Montague Avenue, North Charleston"}, {"business_status": "OPERATIONAL", "geometry": {"location": {"lat": 32.88120999999999, "lng": -79.975903}, "viewport": {"northeast": {"lat": 32.8827245802915, "lng": -79.9744268197085}, "southwest": {"lat": 32.8800266197085, "lng": -79.97712478029152}}}, "icon": "https://maps.gstatic.com/mapfiles/place_api/icons/v1/png_71/bar-71.png", "name": "DIG In The Park", "opening_hours": {"open_now": true}, "photos": [{"height": 768, "html_attributions": ["<a href=\"https://maps.google.com/maps/contrib/111510870498135391386\">DIG In The Park</a>"], "photo_reference": "Aap_uED4c0PASlaZGy4jq2jiD7auwOJaiOSb3cn6lKqKsP_eRgRGctZvzVEhWJpTLzXfKp82gSrnWZxk7DFrRsFD2ELJ5Fk60ilgWIQs5cT8f16SowM1yKKv6UskK_dyqfniMk8FttnpqwurZwhqizJ3pyY5D7-nurTC0rYYircfNZCL64CZ", "width": 768}], "place_id": "ChIJyUgfhuhk_ogR-v2Ca01_6Us", "plus_code": {"compound_code": "V2JF+FJ North Charleston, SC, USA", "global_code": "8742V2JF+FJ"}, "price_level": 2, "rating": 4.3, "reference": "ChIJyUgfhuhk_ogR-v2Ca01_6Us", "scope": "GOOGLE", "types": ["bar", "restaurant", "food", "point_of_interest", "establishment"], "user_ratings_total": 1261, "vicinity": "1049 East Montague Avenue, North Charleston"}, {"business_status": "OPERATIONAL", "geometry": {"location": {"lat": 32.872673, "lng": -79.97842399999999}, "viewport": {"northeast": {"lat": 32.8741668802915, "lng": -79.97708176970849}, "southwest": {"lat": 32.8714689197085, "lng": -79.9797797302915}}}, "icon": "https://maps.gstatic.com/mapfiles/place_api/icons/v1/png_71/generic_business-71.png", "name": "Holy City Brewing", "opening_hours": {"open_now": true}, "photos": [{"height": 667, "html_attributions": ["<a href=\"https://maps.google.com/maps/contrib/109225254070918004974\">Holy City Brewing</a>"], "photo_reference": "Aap_uECPJWBID3iNrr-_DhVWMcuX0iMAw6svNnM6oeQcdLv40quP1BsyPI4HHD8NVyTkTny_GYRyMl_DCRa5AlmmGrFpMVPpC0A4ZtB3mn-ARE-r2uP2Jidw0xY_NkdrwQeTmcwVrekGc8hXIEybN-yut0C3OI_xfJqGhHbGkYCIDySuypLD", "width": 1000}], "place_id": "ChIJXZV_WlF7_ogRy1myXw3d-ME", "plus_code": {"compound_code": "V2FC+3J Charleston, SC, USA", "global_code": "8742V2FC+3J"}, "rating": 4.6, "reference": "ChIJXZV_WlF7_ogRy1myXw3d-ME", "scope": "GOOGLE", "types": ["bar", "restaurant", "food", "point_of_interest", "establishment"], "user_ratings_total": 807, "vicinity": "1021 Aragon Avenue, Charleston"}, {"business_status": "OPERATIONAL", "geometry": {"location": {"lat": 32.8817048, "lng": -79.9749918}, "viewport": {"northeast": {"lat": 32.8829783302915, "lng": -79.97363706970849}, "southwest": {"lat": 32.8802803697085, "lng": -79.9763350302915}}}, "icon": "https://maps.gstatic.com/mapfiles/place_api/icons/v1/png_71/restaurant-71.png", "name": "Park Pizza Co", "opening_hours": {"open_now": true}, "photos": [{"height": 3024, "html_attributions": ["<a href=\"https://maps.google.com/maps/contrib/116420777888225312749\">Matt Prokopek</a>"], "photo_reference": "Aap_uEA4p9FvwmfTRHrmAGHdouC6c9L4976VfknWCAfnU3XMI6lBkGN0esF3en9CeAplwDkGLWrpZ_t6MskqCDLy4O9bCjDvOeEac-ewvjs27O6U27M0QWoudR3U7LbU0OEvq47CznfR-GMG46yot-pVTfMKYVsWabAcaqXfYJIGAHO3aqMT", "width": 4032}], "place_id": "ChIJAQrCJuZk_ogRVUTcLhfqijc", "plus_code": {"compound_code": "V2JG+M2 Charleston, SC, USA", "global_code": "8742V2JG+M2"}, "price_level": 2, "rating": 4.7, "reference": "ChIJAQrCJuZk_ogRVUTcLhfqijc", "scope": "GOOGLE", "types": ["meal_delivery", "meal_takeaway", "restaurant", "food", "point_of_interest", "establishment"], "user_ratings_total": 489, "vicinity": "1028 East Montague Avenue, Charleston"}, {"business_status": "OPERATIONAL", "geometry": {"location": {"lat": 32.8762519, "lng": -79.9798945}, "viewport": {"northeast": {"lat": 32.8775821302915, "lng": -79.97867066970849}, "southwest": {"lat": 32.8748841697085, "lng": -79.9813686302915}}}, "icon": "https://maps.gstatic.com/mapfiles/place_api/icons/v1/png_71/restaurant-71.png", "name": "The Junction Kitchen & Provisions", "opening_hours": {"open_now": false},